$GPVTG,298.72,T,,M,34.49,N,63.91,K,D*39
$GPZDA,202040.200,24,09,2013,,*5F
$GPGGA,202040.400,3844.7476,N,00914.0757,W,2,9,0.99,157.2,M,50.7,M,0000,0000*47
$GPGLL,3844.7476,N,00914.0757,W,202040.400,A,D*4E
$GPGSA,A,3,13,02,10,01,04,17,20,23,07,,,,1.63,0.99,1.30*02
$GPGSV,3,1,11,13,76,171,46,23,65,058,48,04,54,310,44,33,44,189,39*73
$GPGSV,3,2,11,20,39,071,41,17,39,225,47,10,37,282,43,01,17,132,22*74
$GPGSV,3,3,11,02,14,312,37,07,12,161,22,32,09,075,*42
$GPRMC,202040.400,A,3844.7476,N,00914.0757,W,34.51,298.43,240913,,,D*43
$GPVTG,298.43,T,,M,34.51,N,63.94,K,D*37
$GPZDA,202040.400,24,09,2013,,*59
$GPGGA,202040.600,3844.7485,N,00914.0778,W,2,9,0.99,157.0,M,50.7,M,0000,0000*46
$GPGLL,3844.7485,N,00914.0778,W,202040.600,A,D*4D
$GPGSA,A,3,13,02,10,01,04,17,20,23,07,,,,1.63,0.99,1.30*02
$GPGSV,3,1,11,13,76,171,46,23,65,058,48,04,54,310,43,33,44,189,40*7A
$GPGSV,3,2,11,20,39,071,42,17,39,225,47,10,37,282,43,01,17,132,21*74
$GPGSV,3,3,11,02,14,312,37,07,12,161,22,32,09,075,*42
$GPRMC,202040.600,A,3844.7485,N,00914.0778,W,34.53,298.44,240913,,,D*45
$GPVTG,298.44,T,,M,34.53,N,63.98,K,D*3E
$GPZDA,202040.600,24,09,2013,,*5B
$GPGGA,202040.800,3844.7494,N,00914.0801,W,2,9,0.99,156.9,M,50.7,M,0000,0000*41
$GPGLL,3844.7494,N,00914.0801,W,202040.800,A,D*42
$GPGSA,A,3,13,02,10,01,04,17,20,23,07,,,,1.63,0.99,1.30*02
$GPGSV,3,1,11,13,76,171,46,23,65,058,48,04,54,310,43,33,44,189,40*7A
$GPGSV,3,2,11,20,39,071,44,17,39,225,46,10,37,282,43,01,17,132,20*72
$GPGSV,3,3,11,02,14,312,37,07,12,161,22,32,09,075,*42
$GPRMC,202040.800,A,3844.7494,N,00914.0801,W,34.53,298.28,240913,,,D*40
$GPVTG,298.28,T,,M,34.53,N,63.99,K,D*35
$GPZDA,202040.800,24,09,2013,,*55
$GPGGA,202041.000,3844.7503,N,00914.0824,W,2,9,0.99,156.8,M,50.7,M,0000,0000*41
$GPGLL,3844.7503,N,00914.0824,W,202041.000,A,D*43
$GPGSA,A,3,13,02,10,01,04,17,20,23,07,,,,1.63,0.99,1.30*02
$GPGSV,3,1,11,13,76,171,46,23,65,058,48,04,54,310,43,33,44,189,40*7A
$GPGSV,3,2,11,20,39,071,44,17,39,225,46,10,37,282,43,01,17,132,19*78
$GPGSV,3,3,11,02,14,312,37,07,12,161,22,32,09,075,*42
$GPRMC,202041.000,A,3844.7503,N,00914.0824,W,34.53,298.47,240913,,,D*48
$GPVTG,298.47,T,,M,34.53,N,63.98,K,D*3D
$GPZDA,202041.000,24,09,2013,,*5C
$GPGGA,202041.200,3844.7513,N,00914.0846,W,2,9,0.99,156.6,M,50.7,M,0000,0000*48
$GPGLL,3844.7513,N,00914.0846,W,202041.200,A,D*44
$GPGSA,A,3,13,02,10,01,04,17,20,23,07,,,,1.63,0.99,1.30*02
$GPGSV,3,1,11,13,76,171,46,23,65,058,48,04,54,310,43,33,44,189,38*75
$GPGSV,3,2,11,20,39,071,44,17,39,225,46,10,37,282,43,01,17,132,20*72
$GPGSV,3,3,11,02,14,312,37,07,12,161,22,32,09,075,18*4B
$GPRMC,202041.200,A,3844.7513,N,00914.0846,W,34.55,297.75,240913,,,D*47
$GPVTG,297.75,T,,M,34.55,N,64.02,K,D*31
$GPZDA,202041.200,24,09,2013,,*5E
$GPGGA,202041.400,3844.7522,N,00914.0868,W,2,9,0.99,156.4,M,50.7,M,0000,0000*42
$GPGLL,3844.7522,N,00914.0868,W,202041.400,A,D*4C
$GPGSA,A,3,13,02,10,01,04,17,20,23,07,,,,1.63,0.99,1.30*02
$GPGSV,3,1,11,13,76,171,46,23,65,058,48,04,54,310,43,33,44,189,37*7A
$GPGSV,3,2,11,20,39,071,37,17,39,225,46,10,37,282,43,01,17,132,21*77
$GPGSV,3,3,11,02,14,312,37,07,12,161,22,32,09,075,18*4B
$GPRMC,202041.400,A,3844.7522,N,00914.0868,W,34.53,297.72,240913,,,D*4E
$GPVTG,297.72,T,,M,34.53,N,63.99,K,D*35
$GPZDA,202041.400,24,09,2013,,*58
$GPGGA,202041.600,3844.7531,N,00914.0890,W,2,9,0.99,156.3,M,50.7,M,0000,0000*42
$GPGLL,3844.7531,N,00914.0890,W,202041.600,A,D*4B
$GPGSA,A,3,13,02,10,01,04,17,20,23,07,,,,1.63,0.99,1.30*02
$GPGSV,3,1,11,13,76,171,46,23,65,058,48,04,54,310,43,33,44,189,37*7A
$GPGSV,3,2,11,20,39,071,38,17,39,225,45,10,37,282,43,01,17,132,21*7B
$GPGSV,3,3,11,02,14,312,37,07,12,161,23,32,09,075,18*4A
$GPRMC,202041.600,A,3844.7531,N,00914.0890,W,34.54,298.11,240913,,,D*44
$GPVTG,298.11,T,,M,34.54,N,64.01,K,D*3E
$GPZDA,202041.600,24,09,2013,,*5A
$GPGGA,202041.800,3844.7540,N,00914.0912,W,2,9,0.99,156.2,M,50.7,M,0000,0000*40
$GPGLL,3844.7540,N,00914.0912,W,202041.800,A,D*48
$GPGSA,A,3,13,02,10,01,04,17,20,23,07,,,,1.63,0.99,1.30*02
$GPGSV,3,1,11,13,76,171,46,23,65,058,48,04,54,310,43,33,44,189,36*7B
$GPGSV,3,2,11,20,39,071,47,17,39,225,43,10,37,282,44,01,17,132,22*71
$GPGSV,3,3,11,02,14,312,38,07,12,161,24,32,09,075,18*42
$GPRMC,202041.800,A,3844.7540,N,00914.0912,W,34.37,297.76,240913,,,D*4C
$GPVTG,297.76,T,,M,34.37,N,63.68,K,D*3D
$GPZDA,202041.800,24,09,2013,,*54
$GPGGA,202042.000,3844.7549,N,00914.0934,W,2,9,0.99,156.1,M,50.7,M,0000,0000*45
$GPGLL,3844.7549,N,00914.0934,W,202042.000,A,D*4E
$GPGSA,A,3,13,02,10,01,04,17,20,23,07,,,,1.63,0.99,1.30*02
$GPGSV,3,1,11,13,76,171,46,23,65,058,48,04,54,310,43,33,44,189,36*7B
$GPGSV,3,2,11,20,39,071,47,17,39,225,42,10,37,282,44,01,17,132,22*70
$GPGSV,3,3,11,02,14,312,38,07,12,161,24,32,09,075,18*42
$GPRMC,202042.000,A,3844.7549,N,00914.0934,W,34.39,297.54,240913,,,D*44
$GPVTG,297.54,T,,M,34.39,N,63.72,K,D*38
$GPZDA,202042.000,24,09,2013,,*5F
$GPGGA,202042.200,3844.7558,N,00914.0955,W,2,9,0.99,156.0,M,50.7,M,0000,0000*41
$GPGLL,3844.7558,N,00914.0955,W,202042.200,A,D*4B
$GPGSA,A,3,13,02,10,01,04,17,20,23,07,,,,1.63,0.99,1.30*02
$GPGSV,3,1,11,13,76,171,46,23,65,058,48,04,54,310,43,33,44,189,36*7B
$GPGSV,3,2,11,20,39,071,40,17,39,225,41,10,37,282,44,01,17,132,22*74
$GPGSV,3,3,11,02,14,312,38,07,12,161,24,32,09,075,18*42
$GPRMC,202042.200,A,3844.7558,N,00914.0955,W,34.37,297.05,240913,,,D*4B
$GPVTG,297.05,T,,M,34.37,N,63.69,K,D*38
$GPZDA,202042.200,24,09,2013,,*5D
$GPGGA,202042.400,3844.7567,N,00914.0977,W,2,9,0.99,155.9,M,50.7,M,0000,0000*41
$GPGLL,3844.7567,N,00914.0977,W,202042.400,A,D*41
$GPGSA,A,3,13,02,10,01,04,17,20,23,07,,,,1.63,0.99,1.30*02
$GPGSV,3,1,11,13,76,171,46,23,65,058,48,04,54,310,43,33,44,189,36*7B
$GPGSV,3,2,11,20,39,071,40,17,39,225,40,10,37,282,44,01,17,132,22*75
$GPGSV,3,3,11,02,14,312,38,07,12,161,24,32,09,075,18*42
$GPRMC,202042.400,A,3844.7567,N,00914.0977,W,34.42,297.26,240913,,,D*42
$GPVTG,297.26,T,,M,34.42,N,63.78,K,D*3B
$GPZDA,202042.400,24,09,2013,,*5B
$GPGGA,202042.600,3844.7575,N,00914.0998,W,2,9,0.99,155.8,M,50.7,M,0000,0000*40
$GPGLL,3844.7575,N,00914.0998,W,202042.600,A,D*41
$GPGSA,A,3,13,02,10,01,04,17,20,23,07,,,,1.63,0.99,1.30*02
$GPGSV,3,1,11,13,76,171,46,23,65,058,48,04,54,310,43,33,44,189,36*7B
$GPGSV,3,2,11,20,39,071,38,17,39,225,40,10,37,282,44,01,17,132,22*7A
$GPGSV,3,3,11,02,14,312,38,07,12,161,24,32,09,075,18*42
$GPRMC,202042.600,A,3844.7575,N,00914.0998,W,34.43,297.02,240913,,,D*45
$GPVTG,297.02,T,,M,34.43,N,63.80,K,D*3B
$GPZDA,202042.600,24,09,2013,,*59
$GPGGA,202042.800,3844.7585,N,00914.1020,W,2,9,0.99,155.6,M,50.7,M,0000,0000*44
$GPGLL,3844.7585,N,00914.1020,W,202042.800,A,D*4B
$GPGSA,A,3,13,02,10,01,04,17,20,23,07,,,,1.63,0.99,1.30*02
$GPGSV,3,1,11,13,76,171,46,23,65,058,48,04,54,310,43,33,44,189,35*78
$GPGSV,3,2,11,20,39,071,37,17,39,225,40,10,37,282,44,01,17,132,22*75
$GPGSV,3,3,11,02,14,312,38,07,12,161,24,32,09,075,18*42
$GPRMC,202042.800,A,3844.7585,N,00914.1020,W,34.59,297.11,240913,,,D*46
$GPVTG,297.11,T,,M,34.59,N,64.10,K,D*3C
$GPZDA,202042.800,24,09,2013,,*57
$GPGGA,202043.000,3844.7594,N,00914.1042,W,2,9,0.99,155.5,M,50.7,M,0000,0000*4A
$GPGLL,3844.7594,N,00914.1042,W,202043.000,A,D*46
$GPGSA,A,3,13,02,10,01,04,17,20,23,07,,,,1.63,0.99,1.30*02
$GPGSV,3,1,11,13,76,171,46,23,65,058,48,04,54,310,43,33,44,189,35*78
$GPGSV,3,2,11,20,39,071,38,17,39,225,40,10,37,282,44,01,17,132,22*7A
$GPGSV,3,3,11,02,14,312,38,07,12,161,25,32,09,075,18*43
$GPRMC,202043.000,A,3844.7594,N,00914.1042,W,34.36,296.77,240913,,,D*43
$GPVTG,296.77,T,,M,34.36,N,63.67,K,D*33
$GPZDA,202043.000,24,09,2013,,*5E
$GPGGA,202043.200,3844.7602,N,00914.1065,W,2,9,0.99,155.4,M,50.7,M,0000,0000*40
$GPGLL,3844.7602,N,00914.1065,W,202043.200,A,D*4D
$GPGSA,A,3,13,02,10,01,04,17,20,23,07,,,,1.63,0.99,1.30*02
$GPGSV,3,1,11,13,76,171,46,23,65,058,48,04,54,310,43,33,44,189,35*78
$GPGSV,3,2,11,20,39,071,46,17,39,225,39,10,37,282,44,01,17,132,22*7D
$GPGSV,3,3,11,02,14,312,39,07,12,161,26,32,09,075,18*41
$GPRMC,202043.200,A,3844.7602,N,00914.1065,W,34.41,296.77,240913,,,D*48
$GPVTG,296.77,T,,M,34.41,N,63.77,K,D*32
$GPZDA,202043.200,24,09,2013,,*5C
$GPGGA,202043.400,3844.7610,N,00914.1088,W,2,9,0.99,155.4,M,50.7,M,0000,0000*46
$GPGLL,3844.7610,N,00914.1088,W,202043.400,A,D*4B
$GPGSA,A,3,13,02,10,01,04,17,20,23,07,,,,1.63,0.99,1.30*02
$GPGSV,3,1,11,13,76,171,46,23,65,058,48,04,54,310,43,33,44,189,35*78
$GPGSV,3,2,11,20,39,071,46,17,39,225,39,10,37,282,44,01,17,132,22*7D
$GPGSV,3,3,11,02,14,312,39,07,12,161,27,32,09,075,18*40
$GPRMC,202043.400,A,3844.7610,N,00914.1088,W,34.41,296.36,240913,,,D*4B
$GPVTG,296.36,T,,M,34.41,N,63.76,K,D*36
$GPZDA,202043.400,24,09,2013,,*5A
$GPGGA,202043.600,3844.7619,N,00914.1110,W,2,9,0.99,155.3,M,50.7,M,0000,0000*4A
$GPGLL,3844.7619,N,00914.1110,W,202043.600,A,D*40
$GPGSA,A,3,13,02,10,01,04,17,20,23,07,,,,1.63,0.99,1.30*02
$GPGSV,3,1,11,13,76,171,46,23,65,058,48,04,54,310,43,33,44,189,36*7B
$GPGSV,3,2,11,20,39,071,45,17,39,225,39,10,37,282,44,01,17,132,22*7E
$GPGSV,3,3,11,02,14,312,39,07,12,161,29,32,09,075,18*4E
$GPRMC,202043.600,A,3844.7619,N,00914.1110,W,34.44,296.43,240913,,,D*47
$GPVTG,296.43,T,,M,34.44,N,63.82,K,D*3A
$GPZDA,202043.600,24,09,2013,,*58
$GPGGA,202043.800,3844.7627,N,00914.1132,W,2,9,0.99,155.2,M,50.7,M,0000,0000*48
$GPGLL,3844.7627,N,00914.1132,W,202043.800,A,D*43
$GPGSA,A,3,13,02,10,01,04,17,20,23,07,,,,1.63,0.99,1.30*02
$GPGSV,3,1,11,13,76,171,46,23,65,058,48,04,54,310,43,33,44,189,37*7A
$GPGSV,3,2,11,20,39,071,44,17,39,225,39,10,37,282,44,01,17,132,22*7F
$GPGSV,3,3,11,02,14,312,39,07,12,161,30,32,09,075,14*4A
$GPRMC,202043.800,A,3844.7627,N,00914.1132,W,34.71,296.27,240913,,,D*40
$GPVTG,296.27,T,,M,34.71,N,64.32,K,D*32
$GPZDA,202043.800,24,09,2013,,*56
$GPGGA,202044.000,3844.7635,N,00914.1154,W,2,9,0.99,154.9,M,50.7,M,0000,0000*4E
$GPGLL,3844.7635,N,00914.1154,W,202044.000,A,D*4F
$GPGSA,A,3,13,02,10,01,04,17,20,23,07,,,,1.63,0.99,1.30*02
$GPGSV,3,1,11,13,76,171,46,23,65,058,48,04,54,310,43,33,44,189,38*75
$GPGSV,3,2,11,20,39,071,42,17,39,225,40,10,37,282,44,01,17,132,22*77
$GPGSV,3,3,11,02,14,312,39,07,12,161,31,32,09,075,14*4B
$GPRMC,202044.000,A,3844.7635,N,00914.1154,W,34.44,296.04,240913,,,D*4B
$GPVTG,296.04,T,,M,34.44,N,63.83,K,D*38
$GPZDA,202044.000,24,09,2013,,*59
$GPGGA,202044.200,3844.7644,N,00914.1175,W,2,9,0.99,154.9,M,50.7,M,0000,0000*49
$GPGLL,3844.7644,N,00914.1175,W,202044.200,A,D*48
$GPGSA,A,3,13,02,10,01,04,17,20,23,07,,,,1.63,0.99,1.30*02
$GPGSV,3,1,11,13,76,171,46,23,65,058,48,04,54,310,43,33,44,189,38*75
$GPGSV,3,2,11,20,39,071,41,17,39,225,41,10,37,282,45,01,17,132,22*74
$GPGSV,3,3,11,02,14,312,27,07,12,161,29,32,09,075,14*4D
$GPRMC,202044.200,A,3844.7644,N,00914.1175,W,33.84,295.05,240913,,,D*45
$GPVTG,295.05,T,,M,33.84,N,62.71,K,D*3D
$GPZDA,202044.200,24,09,2013,,*5B
$GPGGA,202044.400,3844.7653,N,00914.1196,W,2,8,1.08,154.8,M,50.7,M,0000,0000*4D
$GPGLL,3844.7653,N,00914.1196,W,202044.400,A,D*45
$GPGSA,A,3,13,02,10,01,04,17,20,23,,,,,1.79,1.08,1.43*03
$GPGSV,3,1,11,13,76,171,46,23,65,058,48,04,54,310,43,33,44,189,39*74
$GPGSV,3,2,11,20,39,071,41,17,39,225,42,10,37,282,45,01,17,132,22*77
$GPGSV,3,3,11,02,14,312,27,07,12,161,28,32,09,075,14*4C
$GPRMC,202044.400,A,3844.7653,N,00914.1196,W,33.90,295.47,240913,,,D*4B
$GPVTG,295.47,T,,M,33.90,N,62.81,K,D*31
$GPZDA,202044.400,24,09,2013,,*5D
$GPGGA,202044.600,3844.7661,N,00914.1217,W,2,8,1.08,154.6,M,50.7,M,0000,0000*4A
$GPGLL,3844.7661,N,00914.1217,W,202044.600,A,D*4C
$GPGSA,A,3,13,02,10,01,04,17,20,23,,,,,1.79,1.08,1.43*03
$GPGSV,3,1,11,13,76,171,46,23,65,058,48,04,54,310,43,33,44,189,39*74
$GPGSV,3,2,11,20,39,071,41,17,39,225,42,10,37,282,45,01,17,132,22*77
$GPGSV,3,3,11,02,14,312,25,07,12,161,27,32,09,075,14*41
$GPRMC,202044.600,A,3844.7661,N,00914.1217,W,29.96,292.57,240913,,,D*49
$GPVTG,292.57,T,,M,29.96,N,55.52,K,D*30
$GPZDA,202044.600,24,09,2013,,*5F
$GPGGA,202044.800,3844.7667,N,00914.1237,W,2,9,0.99,154.3,M,50.7,M,0000,0000*4D
$GPGLL,3844.7667,N,00914.1237,W,202044.800,A,D*46
$GPGSA,A,3,13,02,10,01,04,17,20,23,07,,,,1.63,0.99,1.30*02
$GPGSV,3,1,11,13,76,171,46,23,65,058,48,04,54,310,43,33,44,189,39*74
$GPGSV,3,2,11,20,39,071,40,17,39,225,42,10,37,282,45,01,17,132,22*76
$GPGSV,3,3,11,02,14,312,24,07,12,161,27,32,09,075,14*40
$GPRMC,202044.800,A,3844.7667,N,00914.1237,W,30.03,294.28,240913,,,D*49
$GPVTG,294.28,T,,M,30.03,N,55.65,K,D*3E
$GPZDA,202044.800,24,09,2013,,*51
$GPGGA,202045.000,3844.7674,N,00914.1256,W,2,9,0.99,154.1,M,50.7,M,0000,0000*43
$GPGLL,3844.7674,N,00914.1256,W,202045.000,A,D*4A
$GPGSA,A,3,13,02,10,01,04,17,20,23,07,,,,1.63,0.99,1.30*02
$GPGSV,3,1,11,13,76,171,46,23,65,058,48,04,54,310,43,33,44,189,*7E
$GPGSV,3,2,11,20,39,071,40,17,39,225,42,10,37,282,45,01,17,132,22*76
$GPGSV,3,3,11,02,14,312,23,07,12,161,27,32,09,075,14*47
$GPRMC,202045.000,A,3844.7674,N,00914.1256,W,26.48,295.13,240913,,,D*44
$GPVTG,295.13,T,,M,26.48,N,49.07,K,D*36
$GPZDA,202045.000,24,09,2013,,*58
$GPGGA,202045.200,3844.7688,N,00914.1279,W,2,9,0.99,154.3,M,50.7,M,0000,0000*4D
$GPGLL,3844.7688,N,00914.1279,W,202045.200,A,D*46
$GPGSA,A,3,13,02,10,01,04,17,20,23,07,,,,1.63,0.99,1.30*02
$GPGSV,3,1,11,13,76,171,46,23,65,058,48,04,54,310,43,33,44,189,*7E
$GPGSV,3,2,11,20,39,071,40,17,39,225,42,10,37,282,28,01,17,132,22*7D
$GPGSV,3,3,11,02,14,312,25,07,12,161,28,32,09,075,14*4E
$GPRMC,202045.200,A,3844.7688,N,00914.1279,W,41.78,308.41,240913,,,D*48
$GPVTG,308.41,T,,M,41.78,N,77.43,K,D*3B
$GPZDA,202045.200,24,09,2013,,*5A
$GPGGA,202045.400,3844.7695,N,00914.1302,W,2,9,0.99,156.1,M,50.7,M,0000,0000*4A
$GPGLL,3844.7695,N,00914.1302,W,202045.400,A,D*41
$GPGSA,A,3,13,02,10,01,04,17,20,23,07,,,,1.63,0.99,1.30*02
$GPGSV,3,1,11,13,76,171,46,23,65,058,28,04,54,310,43,33,44,189,*78
$GPGSV,3,2,11,20,39,071,40,17,39,225,42,10,37,282,28,01,17,132,22*7D
$GPGSV,3,3,11,02,14,312,42,07,12,161,29,32,09,075,14*4E
$GPRMC,202045.400,A,3844.7695,N,00914.1302,W,25.94,289.96,240913,,,D*4D
$GPVTG,289.96,T,,M,25.94,N,48.07,K,D*35
$GPZDA,202045.400,24,09,2013,,*5C
$GPGGA,202045.600,3844.7707,N,00914.1321,W,2,9,0.99,156.2,M,50.7,M,0000,0000*40
$GPGLL,3844.7707,N,00914.1321,W,202045.600,A,D*48
$GPGSA,A,3,13,02,10,01,04,17,20,23,07,,,,1.63,0.99,1.30*02
$GPGSV,3,1,11,13,76,171,31,23,65,058,28,04,54,310,20,33,44,189,*7D
$GPGSV,3,2,11,20,39,071,26,17,39,225,42,10,37,282,29,01,17,132,22*7C
$GPGSV,3,3,11,02,14,312,42,07,12,161,29,32,09,075,14*4E
$GPRMC,202045.600,A,3844.7707,N,00914.1321,W,33.40,307.81,240913,,,D*4B
$GPVTG,307.81,T,,M,33.40,N,61.90,K,D*3F
$GPZDA,202045.600,24,09,2013,,*5E
$GPGGA,202045.800,3844.7718,N,00914.1341,W,2,9,0.97,156.3,M,50.7,M,0000,0000*49
$GPGLL,3844.7718,N,00914.1341,W,202045.800,A,D*4E
$GPGSA,A,3,13,02,10,01,04,17,20,23,07,,,,1.25,0.97,0.79*02
$GPGSV,3,1,11,13,76,171,31,23,65,058,28,04,54,310,20,33,44,189,*7D
$GPGSV,3,2,11,20,39,071,26,17,39,225,21,10,37,282,30,01,17,132,21*72
$GPGSV,3,3,11,02,14,312,42,07,12,161,29,32,09,075,14*4E
$GPRMC,202045.800,A,3844.7718,N,00914.1341,W,34.33,306.50,240913,,,D*43
$GPVTG,306.50,T,,M,34.33,N,63.61,K,D*3D
$GPZDA,202045.800,24,09,2013,,*50
$GPGGA,202046.000,3844.7728,N,00914.1363,W,2,9,0.97,156.3,M,50.7,M,0000,0000*41
$GPGLL,3844.7728,N,00914.1363,W,202046.000,A,D*46
$GPGSA,A,3,13,02,10,01,04,17,20,23,07,,,,1.25,0.97,0.79*02
$GPGSV,3,1,11,13,76,171,31,23,65,058,28,04,54,310,20,33,44,189,*7D
$GPGSV,3,2,11,20,39,071,26,17,39,225,21,10,37,282,44,01,17,132,20*70
$GPGSV,3,3,11,02,14,312,42,07,12,161,29,32,09,075,14*4E
$GPRMC,202046.000,A,3844.7728,N,00914.1363,W,35.35,301.15,240913,,,D*4A
$GPVTG,301.15,T,,M,35.35,N,65.51,K,D*39
$GPZDA,202046.000,24,09,2013,,*5B
$GPGGA,202046.200,3844.7737,N,00914.1386,W,2,9,0.97,156.3,M,50.7,M,0000,0000*46
$GPGLL,3844.7737,N,00914.1386,W,202046.200,A,D*41
$GPGSA,A,3,13,02,10,01,04,17,20,23,07,,,,1.25,0.97,0.79*02
$GPGSV,3,1,11,13,76,171,31,23,65,058,28,04,54,310,34,33,44,189,*78
$GPGSV,3,2,11,20,39,071,26,17,39,225,21,10,37,282,44,01,17,132,20*70
$GPGSV,3,3,11,02,14,312,42,07,12,161,29,32,09,075,14*4E
$GPRMC,202046.200,A,3844.7737,N,00914.1386,W,35.42,298.49,240913,,,D*45
$GPVTG,298.49,T,,M,35.42,N,65.63,K,D*30
$GPZDA,202046.200,24,09,2013,,*59
$GPGGA,202046.400,3844.7746,N,00914.1409,W,2,9,0.97,156.4,M,50.7,M,0000,0000*41
$GPGLL,3844.7746,N,00914.1409,W,202046.400,A,D*41
$GPGSA,A,3,13,02,10,01,04,17,20,23,07,,,,1.25,0.97,0.79*02
$GPGSV,3,1,11,13,76,171,31,23,65,058,29,04,54,310,42,33,44,189,*78
$GPGSV,3,2,11,20,39,071,26,17,39,225,21,10,37,282,44,01,17,132,20*70
$GPGSV,3,3,11,02,14,312,41,07,12,161,30,32,09,075,15*44
$GPRMC,202046.400,A,3844.7746,N,00914.1409,W,35.17,297.14,240913,,,D*42
$GPVTG,297.14,T,,M,35.17,N,65.18,K,D*3B
$GPZDA,202046.400,24,09,2013,,*5F
$GPGGA,202046.600,3844.7753,N,00914.1435,W,2,9,0.99,156.2,M,50.7,M,0000,0000*40
$GPGLL,3844.7753,N,00914.1435,W,202046.600,A,D*48
$GPGSA,A,3,13,02,10,01,04,17,20,23,07,,,,1.63,0.99,1.30*02
$GPGSV,3,1,11,13,76,171,31,23,65,058,47,04,54,310,42,33,44,189,*70
$GPGSV,3,2,11,20,39,071,26,17,39,225,21,10,37,282,44,01,17,132,21*71
$GPGSV,3,3,11,02,14,312,41,07,12,161,30,32,09,075,15*44
$GPRMC,202046.600,A,3844.7753,N,00914.1435,W,35.81,294.15,240913,,,D*46
$GPVTG,294.15,T,,M,35.81,N,66.36,K,D*39
$GPZDA,202046.600,24,09,2013,,*5D
$GPGGA,202046.800,3844.7761,N,00914.1460,W,2,9,0.88,156.1,M,50.7,M,0000,0000*4C
$GPGLL,3844.7761,N,00914.1460,W,202046.800,A,D*47
$GPGSA,A,3,02,10,01,04,17,20,32,23,07,,,,1.62,0.88,1.36*06
$GPGSV,3,1,11,13,76,171,,23,65,058,47,04,54,310,42,33,44,189,*72
$GPGSV,3,2,11,20,39,071,26,17,39,225,21,10,37,282,44,01,17,132,22*72
$GPGSV,3,3,11,02,14,312,41,07,12,161,30,32,09,075,15*44
$GPRMC,202046.800,A,3844.7761,N,00914.1460,W,35.88,292.99,240913,,,D*42
$GPVTG,292.99,T,,M,35.88,N,66.48,K,D*3B
$GPZDA,202046.800,24,09,2013,,*53
$GPGGA,202047.000,3844.7768,N,00914.1484,W,2,8,1.01,156.1,M,50.7,M,0000,0000*47
$GPGLL,3844.7768,N,00914.1484,W,202047.000,A,D*4D
$GPGSA,A,3,02,10,01,04,20,32,23,07,,,,,1.73,1.01,1.40*01
$GPGSV,3,1,11,13,76,171,,23,65,058,47,04,54,310,42,33,44,189,*72
$GPGSV,3,2,11,20,39,071,27,17,39,225,,10,37,282,44,01,17,132,22*70
$GPGSV,3,3,11,02,14,312,40,07,12,161,31,32,09,075,15*44
$GPRMC,202047.000,A,3844.7768,N,00914.1484,W,35.95,292.35,240913,,,D*42
$GPVTG,292.35,T,,M,35.95,N,66.61,K,D*3A
$GPZDA,202047.000,24,09,2013,,*5A
$GPGGA,202047.200,3844.7777,N,00914.1508,W,2,8,1.01,156.1,M,50.7,M,0000,0000*4E
$GPGLL,3844.7777,N,00914.1508,W,202047.200,A,D*44
$GPGSA,A,3,02,10,01,04,20,32,23,07,,,,,1.73,1.01,1.41*00
$GPGSV,3,1,11,13,76,171,,23,65,058,47,04,54,310,43,33,44,189,*73
$GPGSV,3,2,11,20,39,071,28,17,39,225,,10,37,282,44,01,17,132,22*7F
$GPGSV,3,3,11,02,14,312,40,07,12,161,31,32,09,075,15*44
$GPRMC,202047.200,A,3844.7777,N,00914.1508,W,35.89,292.50,240913,,,D*45
$GPVTG,292.50,T,,M,35.89,N,66.50,K,D*36
$GPZDA,202047.200,24,09,2013,,*58
$GPGGA,202047.400,3844.7785,N,00914.1531,W,2,7,1.35,156.1,M,50.7,M,0000,0000*47
$GPGLL,3844.7785,N,00914.1531,W,202047.400,A,D*45
$GPGSA,A,3,02,10,01,04,20,32,23,,,,,,1.97,1.35,1.43*08
$GPGSV,3,1,11,13,76,171,,23,65,058,47,04,54,310,43,33,44,189,*73
$GPGSV,3,2,11,20,39,071,28,17,39,225,,10,37,282,44,01,17,132,22*7F
$GPGSV,3,3,11,02,14,312,40,07,12,161,21,32,09,075,15*45
$GPRMC,202047.400,A,3844.7785,N,00914.1531,W,35.92,292.65,240913,,,D*48
$GPVTG,292.65,T,,M,35.92,N,66.57,K,D*3D
$GPZDA,202047.400,24,09,2013,,*5E
$GPGGA,202047.600,3844.7794,N,00914.1555,W,2,8,1.02,156.1,M,50.7,M,0000,0000*4C
$GPGLL,3844.7794,N,00914.1555,W,202047.600,A,D*45
$GPGSA,A,3,02,10,01,04,17,20,32,23,,,,,1.75,1.02,1.43*06
$GPGSV,3,1,11,13,76,171,,23,65,058,47,04,54,310,43,33,44,189,38*78
$GPGSV,3,2,11,20,39,071,39,17,39,225,41,10,37,282,44,01,17,132,22*7A
$GPGSV,3,3,11,02,14,312,40,07,12,161,21,32,09,075,16*46
$GPRMC,202047.600,A,3844.7794,N,00914.1555,W,36.11,293.07,240913,,,D*45
$GPVTG,293.07,T,,M,36.11,N,66.92,K,D*39
$GPZDA,202047.600,24,09,2013,,*5C
$GPGGA,202047.800,3844.7802,N,00914.1579,W,2,8,1.08,156.0,M,50.7,M,0000,0000*47
$GPGLL,3844.7802,N,00914.1579,W,202047.800,A,D*45
$GPGSA,A,3,13,02,10,01,04,17,20,23,,,,,1.79,1.08,1.43*03
$GPGSV,3,1,11,13,76,171,46,23,65,058,47,04,54,310,43,33,44,189,38*7A
$GPGSV,3,2,11,20,39,071,39,17,39,225,44,10,37,282,44,01,17,132,21*7C
$GPGSV,3,3,11,02,14,312,40,07,12,161,21,32,09,075,16*46
$GPRMC,202047.800,A,3844.7802,N,00914.1579,W,36.17,293.40,240913,,,D*40
$GPVTG,293.40,T,,M,36.17,N,67.03,K,D*35
$GPZDA,202047.800,24,09,2013,,*52
$GPGGA,202048.000,3844.7811,N,00914.1602,W,2,8,1.08,156.0,M,50.7,M,0000,0000*4D
$GPGLL,3844.7811,N,00914.1602,W,202048.000,A,D*4F
$GPGSA,A,3,13,02,10,01,04,17,20,23,,,,,1.79,1.08,1.43*03
$GPGSV,3,1,11,13,76,171,46,23,65,058,47,04,54,310,43,33,44,189,36*74
$GPGSV,3,2,11,20,39,071,39,17,39,225,44,10,37,282,44,01,17,132,20*7D
$GPGSV,3,3,11,02,14,312,40,07,12,161,21,32,09,075,16*46
$GPRMC,202048.000,A,3844.7811,N,00914.1602,W,36.21,293.23,240913,,,D*4A
$GPVTG,293.23,T,,M,36.21,N,67.10,K,D*37
$GPZDA,202048.000,24,09,2013,,*55
$GPGGA,202048.200,3844.7819,N,00914.1626,W,2,8,1.08,155.9,M,50.7,M,0000,0000*4B
$GPGLL,3844.7819,N,00914.1626,W,202048.200,A,D*43
$GPGSA,A,3,13,02,10,01,04,17,20,23,,,,,1.79,1.08,1.43*03
$GPGSV,3,1,11,13,76,171,46,23,65,058,47,04,54,310,43,33,44,189,36*74
$GPGSV,3,2,11,20,39,071,39,17,39,225,45,10,37,282,44,01,17,132,20*7C
$GPGSV,3,3,11,02,14,312,40,07,12,161,20,32,09,075,16*47
$GPRMC,202048.200,A,3844.7819,N,00914.1626,W,36.26,293.03,240913,,,D*43
$GPVTG,293.03,T,,M,36.26,N,67.19,K,D*3B
$GPZDA,202048.200,24,09,2013,,*57
$GPGGA,202048.400,3844.7827,N,00914.1650,W,2,8,1.08,155.8,M,50.7,M,0000,0000*40
$GPGLL,3844.7827,N,00914.1650,W,202048.400,A,D*49
$GPGSA,A,3,13,02,10,01,04,17,20,23,,,,,1.79,1.08,1.43*03
$GPGSV,3,1,11,13,76,171,46,23,65,058,47,04,54,310,43,33,44,189,37*75
$GPGSV,3,2,11,20,39,071,39,17,39,225,46,10,37,282,44,01,17,132,21*7E
$GPGSV,3,3,11,02,14,312,40,07,12,161,20,32,09,075,16*47
$GPRMC,202048.400,A,3844.7827,N,00914.1650,W,36.30,292.83,240913,,,D*47
$GPVTG,292.83,T,,M,36.30,N,67.26,K,D*39
$GPZDA,202048.400,24,09,2013,,*51
$GPGGA,202048.600,3844.7835,N,00914.1674,W,2,8,1.08,155.7,M,50.7,M,0000,0000*48
$GPGLL,3844.7835,N,00914.1674,W,202048.600,A,D*4E
$GPGSA,A,3,13,02,10,01,04,17,20,23,,,,,1.79,1.08,1.43*03
$GPGSV,3,1,11,13,76,171,46,23,65,058,47,04,54,310,43,33,44,189,37*75
$GPGSV,3,2,11,20,39,071,39,17,39,225,47,10,37,282,44,01,17,132,21*7F
$GPGSV,3,3,11,02,14,312,40,07,12,161,20,32,09,075,16*47
$GPRMC,202048.600,A,3844.7835,N,00914.1674,W,36.30,292.92,240913,,,D*40
$GPVTG,292.92,T,,M,36.30,N,67.26,K,D*39
$GPZDA,202048.600,24,09,2013,,*53
$GPGGA,202048.800,3844.7844,N,00914.1698,W,2,8,1.08,155.6,M,50.7,M,0000,0000*43
$GPGLL,3844.7844,N,00914.1698,W,202048.800,A,D*44
$GPGSA,A,3,13,02,10,01,04,17,20,23,,,,,1.79,1.08,1.43*03
$GPGSV,3,1,11,13,76,171,46,23,65,058,47,04,54,310,43,33,44,189,37*75
$GPGSV,3,2,11,20,39,071,38,17,39,225,47,10,37,282,44,01,17,132,21*7E
$GPGSV,3,3,11,02,14,312,40,07,12,161,19,32,09,075,16*4D
$GPRMC,202048.800,A,3844.7844,N,00914.1698,W,36.32,292.71,240913,,,D*45
$GPVTG,292.71,T,,M,36.32,N,67.31,K,D*30
$GPZDA,202048.800,24,09,2013,,*5D
$GPGGA,202049.000,3844.7852,N,00914.1722,W,2,9,0.99,155.4,M,50.7,M,0000,0000*47
$GPGLL,3844.7852,N,00914.1722,W,202049.000,A,D*4A
$GPGSA,A,3,13,02,10,01,04,17,20,23,07,,,,1.63,0.99,1.30*02
$GPGSV,3,1,11,13,76,171,46,23,65,058,47,04,54,310,43,33,44,189,36*74
$GPGSV,3,2,11,20,39,071,38,17,39,225,47,10,37,282,44,01,17,132,21*7E
$GPGSV,3,3,11,02,14,312,39,07,12,161,18,32,09,075,16*42
$GPRMC,202049.000,A,3844.7852,N,00914.1722,W,36.34,292.62,240913,,,D*4F
$GPVTG,292.62,T,,M,36.34,N,67.33,K,D*36
$GPZDA,202049.000,24,09,2013,,*54
$GPGGA,202049.200,3844.7860,N,00914.1746,W,2,9,0.99,155.3,M,50.7,M,0000,0000*41
$GPGLL,3844.7860,N,00914.1746,W,202049.200,A,D*4B
$GPGSA,A,3,13,02,10,01,04,17,20,23,07,,,,1.63,0.99,1.30*02
$GPGSV,3,1,11,13,76,171,46,23,65,058,47,04,54,310,43,33,44,189,36*74
$GPGSV,3,2,11,20,39,071,38,17,39,225,46,10,37,282,44,01,17,132,23*7D
$GPGSV,3,3,11,02,14,312,39,07,12,161,18,32,09,075,16*42
$GPRMC,202049.200,A,3844.7860,N,00914.1746,W,36.35,292.55,240913,,,D*4B
$GPVTG,292.55,T,,M,36.35,N,67.36,K,D*36
$GPZDA,202049.200,24,09,2013,,*56
$GPGGA,202049.400,3844.7868,N,00914.1770,W,2,9,0.99,155.2,M,50.7,M,0000,0000*4B
$GPGLL,3844.7868,N,00914.1770,W,202049.400,A,D*40
$GPGSA,A,3,13,02,10,01,04,17,20,23,07,,,,1.63,0.99,1.30*02
$GPGSV,3,1,11,13,76,171,46,23,65,058,47,04,54,310,43,33,44,189,36*74
$GPGSV,3,2,11,20,39,071,38,17,39,225,47,10,37,282,44,01,17,132,24*7B
$GPGSV,3,3,11,02,14,312,39,07,12,161,18,32,09,075,16*42
$GPRMC,202049.400,A,3844.7868,N,00914.1770,W,36.39,292.30,240913,,,D*4F
$GPVTG,292.30,T,,M,36.39,N,67.43,K,D*3B
$GPZDA,202049.400,24,09,2013,,*50
$GPGGA,202049.600,3844.7876,N,00914.1793,W,2,8,1.08,155.1,M,50.7,M,0000,0000*40
$GPGLL,3844.7876,N,00914.1793,W,202049.600,A,D*40
$GPGSA,A,3,13,02,10,01,04,17,20,23,,,,,1.79,1.08,1.43*03
$GPGSV,3,1,11,13,76,171,45,23,65,058,47,04,54,310,43,33,44,189,36*77
$GPGSV,3,2,11,20,39,071,38,17,39,225,45,10,37,282,44,01,17,132,25*78
$GPGSV,3,3,11,02,14,312,39,07,12,161,18,32,09,075,16*42
$GPRMC,202049.600,A,3844.7876,N,00914.1793,W,36.41,291.99,240913,,,D*40
$GPVTG,291.99,T,,M,36.41,N,67.47,K,D*30
$GPZDA,202049.600,24,09,2013,,*52
$GPGGA,202049.800,3844.7884,N,00914.1817,W,2,8,1.08,154.9,M,50.7,M,0000,0000*49
$GPGLL,3844.7884,N,00914.1817,W,202049.800,A,D*40
$GPGSA,A,3,13,02,10,01,04,17,20,23,,,,,1.79,1.08,1.43*03
$GPGSV,3,1,11,13,76,171,46,23,65,058,47,04,54,310,43,33,44,189,38*7A
$GPGSV,3,2,11,20,39,071,38,17,39,225,45,10,37,282,44,01,17,132,26*7B
$GPGSV,3,3,11,02,14,312,39,07,12,161,18,32,09,075,16*42
$GPRMC,202049.800,A,3844.7884,N,00914.1817,W,36.44,291.92,240913,,,D*4E
$GPVTG,291.92,T,,M,36.44,N,67.53,K,D*3B
$GPZDA,202049.800,24,09,2013,,*5C
$GPGGA,202050.000,3844.7891,N,00914.1841,W,2,8,1.08,154.8,M,50.7,M,0000,0000*4F
$GPGLL,3844.7891,N,00914.1841,W,202050.000,A,D*47
$GPGSA,A,3,13,02,10,01,04,17,20,23,,,,,1.79,1.08,1.43*03
$GPGSV,3,1,11,13,76,171,46,23,65,058,47,04,54,310,43,33,44,189,37*75
$GPGSV,3,2,11,20,39,071,38,17,39,225,47,10,37,282,44,01,17,132,27*78
$GPGSV,3,3,11,02,14,312,38,07,12,161,18,32,09,075,16*43
$GPRMC,202050.000,A,3844.7891,N,00914.1841,W,36.47,291.80,240913,,,D*49
$GPVTG,291.80,T,,M,36.47,N,67.58,K,D*30
$GPZDA,202050.000,24,09,2013,,*5C
$GPGGA,202050.200,3844.7897,N,00914.1865,W,2,8,1.08,154.5,M,50.7,M,0000,0000*40
$GPGLL,3844.7897,N,00914.1865,W,202050.200,A,D*45
$GPGSA,A,3,13,02,10,01,04,17,20,23,,,,,1.79,1.08,1.43*03
$GPGSV,3,1,11,13,76,171,46,23,65,058,47,04,54,310,44,33,44,189,36*73
$GPGSV,3,2,11,20,39,071,38,17,39,225,46,10,37,282,44,01,17,132,27*79
$GPGSV,3,3,11,02,14,312,37,07,12,161,19,32,09,075,16*4D
$GPRMC,202050.200,A,3844.7897,N,00914.1865,W,36.49,290.30,240913,,,D*4F
$GPVTG,290.30,T,,M,36.49,N,67.62,K,D*3D
$GPZDA,202050.200,24,09,2013,,*5E
$GPGGA,202050.400,3844.7904,N,00914.1889,W,2,8,1.08,154.2,M,50.7,M,0000,0000*48
$GPGLL,3844.7904,N,00914.1889,W,202050.400,A,D*4A
$GPGSA,A,3,13,02,10,01,04,17,20,23,,,,,1.79,1.08,1.43*03
$GPGSV,3,1,11,13,76,171,46,23,65,058,47,04,54,310,44,33,44,189,36*73
$GPGSV,3,2,11,20,39,071,38,17,39,225,46,10,37,282,43,01,17,132,29*70
$GPGSV,3,3,11,02,14,312,37,07,12,161,19,32,09,075,16*4D
$GPRMC,202050.400,A,3844.7904,N,00914.1889,W,36.53,290.05,240913,,,D*4D
$GPVTG,290.05,T,,M,36.53,N,67.69,K,D*3B
$GPZDA,202050.400,24,09,2013,,*58
$GPGGA,202050.600,3844.7911,N,00914.1914,W,2,8,1.08,154.0,M,50.7,M,0000,0000*49
$GPGLL,3844.7911,N,00914.1914,W,202050.600,A,D*49
$GPGSA,A,3,13,02,10,01,04,17,20,23,,,,,1.79,1.08,1.43*03
$GPGSV,3,1,11,13,76,171,46,23,65,058,47,04,54,310,44,33,44,189,37*72
$GPGSV,3,2,11,20,39,071,38,17,39,225,47,10,37,282,43,01,17,132,30*79
$GPGSV,3,3,11,02,14,312,37,07,12,161,19,32,09,075,16*4D
$GPRMC,202050.600,A,3844.7911,N,00914.1914,W,36.55,289.84,240913,,,D*49
$GPVTG,289.84,T,,M,36.55,N,67.73,K,D*37
$GPZDA,202050.600,24,09,2013,,*5A
$GPGGA,202050.800,3844.7918,N,00914.1938,W,2,9,0.99,153.8,M,50.7,M,0000,0000*47
$GPGLL,3844.7918,N,00914.1938,W,202050.800,A,D*40
$GPGSA,A,3,13,02,10,01,04,17,20,23,07,,,,1.63,0.99,1.30*02
$GPGSV,3,1,11,13,76,171,46,23,65,058,47,04,54,310,44,33,44,189,38*7D
$GPGSV,3,2,11,20,39,071,38,17,39,225,48,10,37,282,43,01,17,132,30*76
$GPGSV,3,3,11,02,14,312,37,07,12,161,28,32,09,075,16*4F
$GPRMC,202050.800,A,3844.7918,N,00914.1938,W,36.57,289.58,240913,,,D*43
$GPVTG,289.58,T,,M,36.57,N,67.76,K,D*31
$GPZDA,202050.800,24,09,2013,,*54
$GPGGA,202051.000,3844.7925,N,00914.1962,W,2,9,0.99,153.3,M,50.7,M,0000,0000*44
$GPGLL,3844.7925,N,00914.1962,W,202051.000,A,D*48
$GPGSA,A,3,13,02,10,01,04,17,20,23,07,,,,1.63,0.99,1.30*02
$GPGSV,3,1,11,13,76,171,46,23,65,058,47,04,54,310,44,33,44,189,36*73
$GPGSV,3,2,11,20,39,071,38,17,39,225,47,10,37,282,43,01,17,132,30*79
$GPGSV,3,3,11,02,14,312,38,07,12,161,28,32,09,075,16*40
$GPRMC,202051.000,A,3844.7925,N,00914.1962,W,36.59,289.43,240913,,,D*4F
$GPVTG,289.43,T,,M,36.59,N,67.79,K,D*3A
$GPZDA,202051.000,24,09,2013,,*5D
$GPGGA,202051.200,3844.7931,N,00914.1987,W,2,9,0.99,153.0,M,50.7,M,0000,0000*4B
$GPGLL,3844.7931,N,00914.1987,W,202051.200,A,D*44
$GPGSA,A,3,13,02,10,01,04,17,20,23,07,,,,1.63,0.99,1.30*02
$GPGSV,3,1,11,13,76,171,46,23,65,058,47,04,54,310,44,33,44,189,36*73
$GPGSV,3,2,11,20,39,071,39,17,39,225,46,10,37,282,43,01,17,132,30*79
$GPGSV,3,3,11,02,14,312,38,07,12,161,28,32,09,075,16*40
$GPRMC,202051.200,A,3844.7931,N,00914.1987,W,36.60,289.24,240913,,,D*48
$GPVTG,289.24,T,,M,36.60,N,67.83,K,D*34
$GPZDA,202051.200,24,09,2013,,*5F
$GPGGA,202051.400,3844.7938,N,00914.2011,W,2,9,0.99,152.7,M,50.7,M,0000,0000*47
$GPGLL,3844.7938,N,00914.2011,W,202051.400,A,D*4E
$GPGSA,A,3,13,02,10,01,04,17,20,23,07,,,,1.63,0.99,1.30*02
$GPGSV,3,1,11,13,76,171,47,23,65,058,47,04,54,310,44,33,44,189,39*7D
$GPGSV,3,2,11,20,39,071,39,17,39,225,48,10,37,282,43,01,17,132,30*77
$GPGSV,3,3,11,02,14,312,38,07,12,161,29,32,09,075,16*41
$GPRMC,202051.400,A,3844.7938,N,00914.2011,W,36.64,288.85,240913,,,D*4C
$GPVTG,288.85,T,,M,36.64,N,67.89,K,D*30
$GPZDA,202051.400,24,09,2013,,*59
$GPGGA,202051.600,3844.7945,N,00914.2036,W,2,9,0.99,152.4,M,50.7,M,0000,0000*49
$GPGLL,3844.7945,N,00914.2036,W,202051.600,A,D*43
$GPGSA,A,3,13,02,10,01,04,17,20,23,07,,,,1.63,0.99,1.30*02
$GPGSV,3,1,11,13,76,171,46,23,65,058,47,04,54,310,44,33,44,189,38*7D
$GPGSV,3,2,11,20,39,071,39,17,39,225,47,10,37,282,43,01,17,132,30*78
$GPGSV,3,3,11,02,14,312,38,07,12,161,40,32,09,075,17*4F
$GPRMC,202051.600,A,3844.7945,N,00914.2036,W,36.69,288.79,240913,,,D*4F
$GPVTG,288.79,T,,M,36.69,N,67.99,K,D*3F
$GPZDA,202051.600,24,09,2013,,*5B
$GPGGA,202051.800,3844.7951,N,00914.2060,W,2,9,0.99,152.0,M,50.7,M,0000,0000*45
$GPGLL,3844.7951,N,00914.2060,W,202051.800,A,D*4B
$GPGSA,A,3,13,02,10,01,04,17,20,23,07,,,,1.63,0.99,1.30*02
$GPGSV,3,1,11,13,76,171,46,23,65,058,47,04,54,310,44,33,44,189,39*7C
$GPGSV,3,2,11,20,39,071,40,17,39,225,48,10,37,282,43,01,17,132,30*79
$GPGSV,3,3,11,02,14,312,38,07,12,161,40,32,09,075,18*40
$GPRMC,202051.800,A,3844.7951,N,00914.2060,W,36.69,288.56,240913,,,D*4A
$GPVTG,288.56,T,,M,36.69,N,67.99,K,D*32
$GPZDA,202051.800,24,09,2013,,*55
$GPGGA,202052.000,3844.7957,N,00914.2084,W,2,9,0.99,151.6,M,50.7,M,0000,0000*47
$GPGLL,3844.7957,N,00914.2084,W,202052.000,A,D*4C
$GPGSA,A,3,13,02,10,01,04,17,20,23,07,,,,1.63,0.99,1.30*02
$GPGSV,3,1,11,13,76,171,46,23,65,058,47,04,54,310,44,33,44,189,39*7C
$GPGSV,3,2,11,20,39,071,40,17,39,225,48,10,37,282,42,01,17,132,29*70
$GPGSV,3,3,11,02,14,312,37,07,12,161,39,32,09,075,18*41
$GPRMC,202052.000,A,3844.7957,N,00914.2084,W,36.67,288.46,240913,,,D*42
$GPVTG,288.46,T,,M,36.67,N,67.94,K,D*30
$GPZDA,202052.000,24,09,2013,,*5E
$GPGGA,202052.200,3844.7963,N,00914.2108,W,2,9,0.99,151.3,M,50.7,M,0000,0000*42
$GPGLL,3844.7963,N,00914.2108,W,202052.200,A,D*4C
$GPGSA,A,3,13,02,10,01,04,17,20,23,07,,,,1.63,0.99,1.30*02
$GPGSV,3,1,11,13,76,171,47,23,65,058,47,04,54,310,44,33,44,189,38*7C
$GPGSV,3,2,11,20,39,071,40,17,39,225,47,10,37,282,42,01,17,132,29*7F
$GPGSV,3,3,11,02,14,312,37,07,12,161,38,32,09,075,18*40
$GPRMC,202052.200,A,3844.7963,N,00914.2108,W,36.40,288.40,240913,,,D*41
$GPVTG,288.40,T,,M,36.40,N,67.46,K,D*3C
$GPZDA,202052.200,24,09,2013,,*5C
$GPGGA,202052.400,3844.7969,N,00914.2133,W,2,9,0.99,150.9,M,50.7,M,0000,0000*4D
$GPGLL,3844.7969,N,00914.2133,W,202052.400,A,D*48
$GPGSA,A,3,13,02,10,01,04,17,20,23,07,,,,1.63,0.99,1.30*02
$GPGSV,3,1,11,13,76,171,47,23,65,058,47,04,54,310,44,33,44,189,37*73
$GPGSV,3,2,11,20,39,071,40,17,39,225,46,10,37,282,42,01,17,132,29*7E
$GPGSV,3,3,11,02,14,312,37,07,12,161,38,32,09,075,18*40
$GPRMC,202052.400,A,3844.7969,N,00914.2133,W,36.23,288.43,240913,,,D*43
$GPVTG,288.43,T,,M,36.23,N,67.13,K,D*3A
$GPZDA,202052.400,24,09,2013,,*5A
$GPGGA,202052.600,3844.7975,N,00914.2156,W,2,9,0.99,150.6,M,50.7,M,0000,0000*4E
$GPGLL,3844.7975,N,00914.2156,W,202052.600,A,D*44
$GPGSA,A,3,13,02,10,01,04,17,20,23,07,,,,1.63,0.99,1.30*02
$GPGSV,3,1,11,13,76,171,46,23,65,058,47,04,54,310,44,33,44,189,37*72
$GPGSV,3,2,11,20,39,071,40,17,39,225,46,10,37,282,42,01,17,132,29*7E
$GPGSV,3,3,11,02,14,312,37,07,12,161,29,32,09,075,18*40
$GPRMC,202052.600,A,3844.7975,N,00914.2156,W,35.85,288.19,240913,,,D*4F
$GPVTG,288.19,T,,M,35.85,N,66.43,K,D*3E
$GPZDA,202052.600,24,09,2013,,*58
$GPGGA,202052.800,3844.7981,N,00914.2180,W,2,9,0.99,150.2,M,50.7,M,0000,0000*44
$GPGLL,3844.7981,N,00914.2180,W,202052.800,A,D*4A
$GPGSA,A,3,13,02,10,01,04,17,20,23,07,,,,1.63,0.99,1.30*02
$GPGSV,3,1,11,13,76,171,46,23,65,058,47,04,54,310,44,33,44,189,38*7D
$GPGSV,3,2,11,20,39,071,40,17,39,225,47,10,37,282,41,01,17,132,29*7C
$GPGSV,3,3,11,02,14,312,37,07,12,161,29,32,09,075,17*4F
$GPRMC,202052.800,A,3844.7981,N,00914.2180,W,35.77,288.13,240913,,,D*46
$GPVTG,288.13,T,,M,35.77,N,66.29,K,D*35
$GPZDA,202052.800,24,09,2013,,*56
$GPGGA,202053.000,3844.7987,N,00914.2204,W,2,9,0.99,149.9,M,50.7,M,0000,0000*47
$GPGLL,3844.7987,N,00914.2204,W,202053.000,A,D*4A
$GPGSA,A,3,13,02,10,01,04,17,20,23,07,,,,1.63,0.99,1.30*02
$GPGSV,3,1,11,13,76,171,46,23,65,058,47,04,54,310,44,33,44,189,38*7D
$GPGSV,3,2,11,20,39,071,40,17,39,225,46,10,37,282,41,01,17,132,29*7D
$GPGSV,3,3,11,02,14,312,37,07,12,161,29,32,09,075,16*4E
$GPRMC,202053.000,A,3844.7987,N,00914.2204,W,35.57,288.19,240913,,,D*4E
$GPVTG,288.19,T,,M,35.57,N,65.91,K,D*3D
$GPZDA,202053.000,24,09,2013,,*5F
$GPGGA,202053.200,3844.7994,N,00914.2227,W,2,9,0.99,149.5,M,50.7,M,0000,0000*4A
$GPGLL,3844.7994,N,00914.2227,W,202053.200,A,D*4B
$GPGSA,A,3,13,02,10,01,04,17,20,23,07,,,,1.63,0.99,1.30*02
$GPGSV,3,1,11,13,76,171,46,23,65,058,47,04,54,310,44,33,44,189,38*7D
$GPGSV,3,2,11,20,39,071,41,17,39,225,47,10,37,282,42,01,17,132,29*7E
$GPGSV,3,3,11,02,14,312,37,07,12,161,30,32,09,075,16*46
$GPRMC,202053.200,A,3844.7994,N,00914.2227,W,35.35,287.40,240913,,,D*48
$GPVTG,287.40,T,,M,35.35,N,65.51,K,D*36
$GPZDA,202053.200,24,09,2013,,*5D
$GPGGA,202053.400,3844.7999,N,00914.2250,W,2,9,0.99,149.1,M,50.7,M,0000,0000*45
$GPGLL,3844.7999,N,00914.2250,W,202053.400,A,D*40
$GPGSA,A,3,13,02,10,01,04,17,20,23,07,,,,1.63,0.99,1.30*02
$GPGSV,3,1,11,13,76,171,46,23,65,058,47,04,54,310,44,33,44,189,38*7D
$GPGSV,3,2,11,20,39,071,41,17,39,225,47,10,37,282,42,01,17,132,29*7E
$GPGSV,3,3,11,02,14,312,37,07,12,161,30,32,09,075,16*46
$GPRMC,202053.400,A,3844.7999,N,00914.2250,W,35.36,287.82,240913,,,D*4E
$GPVTG,287.82,T,,M,35.36,N,65.52,K,D*38
$GPZDA,202053.400,24,09,2013,,*5B
$GPGGA,202053.600,3844.8005,N,00914.2274,W,2,9,0.99,148.9,M,50.7,M,0000,0000*4B
$GPGLL,3844.8005,N,00914.2274,W,202053.600,A,D*47
$GPGSA,A,3,13,02,10,01,04,17,20,23,07,,,,1.63,0.99,1.30*02
$GPGSV,3,1,11,13,76,171,46,23,65,058,47,04,54,310,44,33,44,189,39*7C
$GPGSV,3,2,11,20,39,071,41,17,39,225,47,10,37,282,42,01,17,132,29*7E
$GPGSV,3,3,11,02,14,312,37,07,12,161,30,32,09,075,16*46
$GPRMC,202053.600,A,3844.8005,N,00914.2274,W,35.42,287.76,240913,,,D*41
$GPVTG,287.76,T,,M,35.42,N,65.64,K,D*35
$GPZDA,202053.600,24,09,2013,,*59
$GPGGA,202053.800,3844.8012,N,00914.2299,W,2,9,0.99,148.5,M,50.7,M,0000,0000*4C
$GPGLL,3844.8012,N,00914.2299,W,202053.800,A,D*4C
$GPGSA,A,3,13,02,10,01,04,17,20,23,07,,,,1.63,0.99,1.30*02
$GPGSV,3,1,11,13,76,171,46,23,65,058,47,04,54,310,44,33,44,189,39*7C
$GPGSV,3,2,11,20,39,071,41,17,39,225,47,10,37,282,42,01,17,132,29*7E
$GPGSV,3,3,11,02,14,312,37,07,12,161,30,32,09,075,16*46
$GPRMC,202053.800,A,3844.8012,N,00914.2299,W,35.48,287.49,240913,,,D*4C
$GPVTG,287.49,T,,M,35.48,N,65.75,K,D*33
$GPZDA,202053.800,24,09,2013,,*57
$GPGGA,202054.000,3844.8017,N,00914.2323,W,2,9,0.99,148.1,M,50.7,M,0000,0000*42
$GPGLL,3844.8017,N,00914.2323,W,202054.000,A,D*46
$GPGSA,A,3,13,02,10,01,04,17,20,23,07,,,,1.63,0.99,1.30*02
$GPGSV,3,1,11,13,76,171,46,23,65,058,47,04,54,310,44,33,44,189,39*7C
$GPGSV,3,2,11,20,39,071,41,17,39,225,47,10,37,282,42,01,17,132,29*7E
$GPGSV,3,3,11,02,14,312,37,07,12,161,30,32,09,075,16*46
$GPRMC,202054.000,A,3844.8017,N,00914.2323,W,35.53,287.52,240913,,,D*46
$GPVTG,287.52,T,,M,35.53,N,65.84,K,D*3D
$GPZDA,202054.000,24,09,2013,,*58
$GPGGA,202054.200,3844.8022,N,00914.2347,W,2,9,0.99,147.6,M,50.7,M,0000,0000*4C
$GPGLL,3844.8022,N,00914.2347,W,202054.200,A,D*40
$GPGSA,A,3,13,02,10,01,04,17,20,23,07,,,,1.63,0.99,1.30*02
$GPGSV,3,1,11,13,76,171,46,23,65,058,47,04,54,310,44,33,44,189,39*7C
$GPGSV,3,2,11,20,39,071,41,17,39,225,47,10,37,282,42,01,17,132,29*7E
$GPGSV,3,3,11,02,14,312,37,07,12,161,30,32,09,075,16*46
$GPRMC,202054.200,A,3844.8022,N,00914.2347,W,35.61,287.63,240913,,,D*43
$GPVTG,287.63,T,,M,35.61,N,65.98,K,D*33
$GPZDA,202054.200,24,09,2013,,*5A
$GPGGA,202054.400,3844.8028,N,00914.2371,W,2,9,0.99,147.3,M,50.7,M,0000,0000*40
$GPGLL,3844.8028,N,00914.2371,W,202054.400,A,D*49
$GPGSA,A,3,13,02,10,01,04,17,20,23,07,,,,1.63,0.99,1.30*02
$GPGSV,3,1,11,13,76,171,46,23,65,058,47,04,54,310,44,33,44,189,39*7C
$GPGSV,3,2,11,20,39,071,41,17,39,225,47,10,37,282,42,01,17,132,28*7F
$GPGSV,3,3,11,02,14,312,37,07,12,161,31,32,09,075,16*47
$GPRMC,202054.400,A,3844.8028,N,00914.2371,W,35.65,287.33,240913,,,D*4B
$GPVTG,287.33,T,,M,35.65,N,66.05,K,D*35
$GPZDA,202054.400,24,09,2013,,*5C
$GPGGA,202054.600,3844.8033,N,00914.2396,W,2,9,0.99,147.0,M,50.7,M,0000,0000*42
$GPGLL,3844.8033,N,00914.2396,W,202054.600,A,D*48
$GPGSA,A,3,13,02,10,01,04,17,20,23,07,,,,1.63,0.99,1.30*02
$GPGSV,3,1,11,13,76,171,46,23,65,058,47,04,54,310,44,33,44,189,39*7C
$GPGSV,3,2,11,20,39,071,41,17,39,225,47,10,37,282,42,01,17,132,28*7F
$GPGSV,3,3,11,02,14,312,38,07,12,161,31,32,09,075,16*48
$GPRMC,202054.600,A,3844.8033,N,00914.2396,W,35.68,287.14,240913,,,D*42
$GPVTG,287.14,T,,M,35.68,N,66.12,K,D*3B
$GPZDA,202054.600,24,09,2013,,*5E
$GPGGA,202054.800,3844.8039,N,00914.2420,W,2,9,0.99,146.8,M,50.7,M,0000,0000*45
$GPGLL,3844.8039,N,00914.2420,W,202054.800,A,D*46
$GPGSA,A,3,13,02,10,01,04,17,20,23,07,,,,1.63,0.99,1.30*02
$GPGSV,3,1,11,13,76,171,46,23,65,058,47,04,54,310,44,33,44,189,40*72
$GPGSV,3,2,11,20,39,071,41,17,39,225,47,10,37,282,42,01,17,132,28*7F
$GPGSV,3,3,11,02,14,312,38,07,12,161,31,32,09,075,16*48
$GPRMC,202054.800,A,3844.8039,N,00914.2420,W,35.71,287.25,240913,,,D*46
$GPVTG,287.25,T,,M,35.71,N,66.17,K,D*34
$GPZDA,202054.800,24,09,2013,,*50
$GPGGA,202055.000,3844.8045,N,00914.2444,W,2,9,0.99,146.6,M,50.7,M,0000,0000*4B
$GPGLL,3844.8045,N,00914.2444,W,202055.000,A,D*46
$GPGSA,A,3,13,02,10,01,04,17,20,23,07,,,,1.63,0.99,1.30*02
$GPGSV,3,1,11,13,76,171,46,23,65,058,47,04,54,310,44,33,44,189,40*72
$GPGSV,3,2,11,20,39,071,41,17,39,225,48,10,37,282,42,01,17,132,29*71
$GPGSV,3,3,11,02,14,312,39,07,12,161,32,32,09,075,16*4A
$GPRMC,202055.000,A,3844.8045,N,00914.2444,W,35.75,287.24,240913,,,D*43
$GPVTG,287.24,T,,M,35.75,N,66.25,K,D*30
$GPZDA,202055.000,24,09,2013,,*59
$GPGGA,202055.200,3844.8050,N,00914.2468,W,2,9,0.99,146.3,M,50.7,M,0000,0000*46
$GPGLL,3844.8050,N,00914.2468,W,202055.200,A,D*4E
$GPGSA,A,3,13,02,10,01,04,17,20,23,07,,,,1.63,0.99,1.30*02
$GPGSV,3,1,11,13,76,171,46,23,65,058,47,04,54,310,44,33,44,189,40*72
$GPGSV,3,2,11,20,39,071,41,17,39,225,48,10,37,282,42,01,17,132,29*71
$GPGSV,3,3,11,02,14,312,40,07,12,161,32,32,09,075,16*44
$GPRMC,202055.200,A,3844.8050,N,00914.2468,W,35.80,287.18,240913,,,D*4E
$GPVTG,287.18,T,,M,35.80,N,66.33,K,D*32
$GPZDA,202055.200,24,09,2013,,*5B
$GPGGA,202055.400,3844.8055,N,00914.2493,W,2,9,0.99,146.0,M,50.7,M,0000,0000*42
$GPGLL,3844.8055,N,00914.2493,W,202055.400,A,D*49
$GPGSA,A,3,13,02,10,01,04,17,20,23,07,,,,1.63,0.99,1.30*02
$GPGSV,3,1,11,13,76,171,46,23,65,058,47,04,54,310,44,33,44,189,40*72
$GPGSV,3,2,11,20,39,071,41,17,39,225,48,10,37,282,42,01,17,132,29*71
$GPGSV,3,3,11,02,14,312,40,07,12,161,32,32,09,075,15*47
$GPRMC,202055.400,A,3844.8055,N,00914.2493,W,35.82,287.14,240913,,,D*47
$GPVTG,287.14,T,,M,35.82,N,66.37,K,D*38
$GPZDA,202055.400,24,09,2013,,*5D
$GPGGA,202055.600,3844.8061,N,00914.2518,W,2,9,0.99,145.8,M,50.7,M,0000,0000*4E
$GPGLL,3844.8061,N,00914.2518,W,202055.600,A,D*4E
$GPGSA,A,3,13,02,10,01,04,17,20,23,07,,,,1.63,0.99,1.30*02
$GPGSV,3,1,11,13,76,171,46,23,65,058,47,04,54,310,44,33,44,189,40*72
$GPGSV,3,2,11,20,39,071,41,17,39,225,48,10,37,282,42,01,17,132,30*79
$GPGSV,3,3,11,02,14,312,40,07,12,161,32,32,09,075,14*46
$GPRMC,202055.600,A,3844.8061,N,00914.2518,W,35.85,287.13,240913,,,D*40
$GPVTG,287.13,T,,M,35.85,N,66.44,K,D*3C
$GPZDA,202055.600,24,09,2013,,*5F
$GPGGA,202055.800,3844.8066,N,00914.2542,W,2,9,0.99,145.5,M,50.7,M,0000,0000*45
$GPGLL,3844.8066,N,00914.2542,W,202055.800,A,D*48
$GPGSA,A,3,13,02,10,01,04,17,20,23,07,,,,1.63,0.99,1.30*02
$GPGSV,3,1,11,13,76,171,46,23,65,058,47,04,54,310,44,33,44,189,40*72
$GPGSV,3,2,11,20,39,071,41,17,39,225,48,10,37,282,42,01,17,132,31*78
$GPGSV,3,3,11,02,14,312,40,07,12,161,32,32,09,075,14*46
$GPRMC,202055.800,A,3844.8066,N,00914.2542,W,35.87,287.06,240913,,,D*40
$GPVTG,287.06,T,,M,35.87,N,66.48,K,D*36
$GPZDA,202055.800,24,09,2013,,*51
$GPGGA,202056.000,3844.8072,N,00914.2566,W,2,9,0.99,145.1,M,50.7,M,0000,0000*49
$GPGLL,3844.8072,N,00914.2566,W,202056.000,A,D*40
$GPGSA,A,3,13,02,10,01,04,17,20,23,07,,,,1.63,0.99,1.30*02
$GPGSV,3,1,11,13,76,171,46,23,65,058,47,04,54,310,44,33,44,189,40*72
$GPGSV,3,2,11,20,39,071,41,17,39,225,47,10,37,282,42,01,17,132,31*77
$GPGSV,3,3,11,02,14,312,40,07,12,161,32,32,09,075,14*46
$GPRMC,202056.000,A,3844.8072,N,00914.2566,W,35.91,287.21,240913,,,D*4A
$GPVTG,287.21,T,,M,35.91,N,66.54,K,D*39
$GPZDA,202056.000,24,09,2013,,*5A
$GPGGA,202056.200,3844.8077,N,00914.2590,W,2,9,0.99,145.0,M,50.7,M,0000,0000*46
$GPGLL,3844.8077,N,00914.2590,W,202056.200,A,D*4E
$GPGSA,A,3,13,02,10,01,04,17,20,23,07,,,,1.63,0.99,1.30*02
$GPGSV,3,1,11,13,76,171,46,23,65,058,47,04,54,310,44,33,44,189,39*7C
$GPGSV,3,2,11,20,39,071,41,17,39,225,47,10,37,282,42,01,17,132,30*76
$GPGSV,3,3,11,02,14,312,39,07,12,161,32,32,09,075,14*48
$GPRMC,202056.200,A,3844.8077,N,00914.2590,W,35.73,287.18,240913,,,D*42
$GPVTG,287.18,T,,M,35.73,N,66.20,K,D*3C
$GPZDA,202056.200,24,09,2013,,*58
$GPGGA,202056.400,3844.8083,N,00914.2614,W,2,9,0.99,144.7,M,50.7,M,0000,0000*42
$GPGLL,3844.8083,N,00914.2614,W,202056.400,A,D*4C
$GPGSA,A,3,13,02,10,01,04,17,20,23,07,,,,1.63,0.99,1.30*02
$GPGSV,3,1,11,13,76,171,46,23,65,058,48,04,54,310,44,33,44,189,39*73
$GPGSV,3,2,11,20,39,071,41,17,39,225,47,10,37,282,42,01,17,132,30*76
$GPGSV,3,3,11,02,14,312,40,07,12,161,30,32,09,075,14*44
$GPRMC,202056.400,A,3844.8083,N,00914.2614,W,35.39,287.23,240913,,,D*46
$GPVTG,287.23,T,,M,35.39,N,65.58,K,D*36
$GPZDA,202056.400,24,09,2013,,*5E
$GPGGA,202056.600,3844.8089,N,00914.2639,W,2,9,0.99,144.7,M,50.7,M,0000,0000*45
$GPGLL,3844.8089,N,00914.2639,W,202056.600,A,D*4B
$GPGSA,A,3,13,02,10,01,04,17,20,23,07,,,,1.63,0.99,1.30*02
$GPGSV,3,1,11,13,76,171,46,23,65,058,48,04,54,310,44,33,44,189,39*73
$GPGSV,3,2,11,20,39,071,41,17,39,225,47,10,37,282,42,01,17,132,31*77
$GPGSV,3,3,11,02,14,312,40,07,12,161,29,32,09,075,14*4C
$GPRMC,202056.600,A,3844.8089,N,00914.2639,W,35.08,287.21,240913,,,D*41
$GPVTG,287.21,T,,M,35.08,N,65.01,K,D*3A
$GPZDA,202056.600,24,09,2013,,*5C
$GPGGA,202056.800,3844.8095,N,00914.2663,W,2,9,0.99,144.6,M,50.7,M,0000,0000*48
$GPGLL,3844.8095,N,00914.2663,W,202056.800,A,D*47
$GPGSA,A,3,13,02,10,01,04,17,20,23,07,,,,1.63,0.99,1.30*02
$GPGSV,3,1,11,13,76,171,46,23,65,058,48,04,54,310,44,33,44,189,39*73
$GPGSV,3,2,11,20,39,071,41,17,39,225,47,10,37,282,42,01,17,132,32*74
$GPGSV,3,3,11,02,14,312,40,07,12,161,28,32,09,075,14*4D
$GPRMC,202056.800,A,3844.8095,N,00914.2663,W,34.68,287.00,240913,,,D*49
$GPVTG,287.00,T,,M,34.68,N,64.27,K,D*3B
$GPZDA,202056.800,24,09,2013,,*52
$GPGGA,202057.000,3844.8101,N,00914.2687,W,2,9,0.99,144.3,M,50.7,M,0000,0000*42
$GPGLL,3844.8101,N,00914.2687,W,202057.000,A,D*48
$GPGSA,A,3,13,02,10,01,04,17,20,23,07,,,,1.63,0.99,1.30*02
$GPGSV,3,1,11,13,76,171,46,23,65,058,48,04,54,310,44,33,44,189,39*73
$GPGSV,3,2,11,20,39,071,42,17,39,225,47,10,37,282,42,01,17,132,32*77
$GPGSV,3,3,11,02,14,312,40,07,12,161,28,32,09,075,14*4D
$GPRMC,202057.000,A,3844.8101,N,00914.2687,W,34.44,287.13,240913,,,D*4A
$GPVTG,287.13,T,,M,34.44,N,63.82,K,D*3F
$GPZDA,202057.000,24,09,2013,,*5B
$GPGGA,202057.200,3844.8107,N,00914.2710,W,2,9,0.99,144.1,M,50.7,M,0000,0000*4B
$GPGLL,3844.8107,N,00914.2710,W,202057.200,A,D*43
$GPGSA,A,3,13,02,10,01,04,17,20,23,07,,,,1.63,0.99,1.30*02
$GPGSV,3,1,11,13,76,171,46,23,65,058,48,04,54,310,44,33,44,189,39*73
$GPGSV,3,2,11,20,39,071,42,17,39,225,47,10,37,282,42,01,17,132,31*74
$GPGSV,3,3,11,02,14,312,40,07,12,161,28,32,09,075,14*4D
$GPRMC,202057.200,A,3844.8107,N,00914.2710,W,34.03,287.21,240913,,,D*43
$GPVTG,287.21,T,,M,34.03,N,63.06,K,D*31
$GPZDA,202057.200,24,09,2013,,*59
$GPGGA,202057.400,3844.8112,N,00914.2733,W,2,9,0.99,143.9,M,50.7,M,0000,0000*47
$GPGLL,3844.8112,N,00914.2733,W,202057.400,A,D*40
$GPGSA,A,3,13,02,10,01,04,17,20,23,07,,,,1.63,0.99,1.30*02
$GPGSV,3,1,11,13,76,171,46,23,65,058,48,04,54,310,44,33,44,189,39*73
$GPGSV,3,2,11,20,39,071,42,17,39,225,47,10,37,282,42,01,17,132,30*75
$GPGSV,3,3,11,02,14,312,40,07,12,161,28,32,09,075,14*4D
$GPRMC,202057.400,A,3844.8112,N,00914.2733,W,33.49,287.13,240913,,,D*48
$GPVTG,287.13,T,,M,33.49,N,62.06,K,D*38
$GPZDA,202057.400,24,09,2013,,*5F
$GPGGA,202057.600,3844.8117,N,00914.2755,W,2,9,0.99,143.7,M,50.7,M,0000,0000*4E
$GPGLL,3844.8117,N,00914.2755,W,202057.600,A,D*47
$GPGSA,A,3,13,02,10,01,04,17,20,23,07,,,,1.63,0.99,1.30*02
$GPGSV,3,1,11,13,76,171,46,23,65,058,48,04,54,310,44,33,44,189,39*73
$GPGSV,3,2,11,20,39,071,42,17,39,225,47,10,37,282,42,01,17,132,30*75
$GPGSV,3,3,11,02,14,312,40,07,12,161,28,32,09,075,14*4D
$GPRMC,202057.600,A,3844.8117,N,00914.2755,W,33.00,287.08,240913,,,D*48
$GPVTG,287.08,T,,M,33.00,N,61.14,K,D*3F
$GPZDA,202057.600,24,09,2013,,*5D
$GPGGA,202057.800,3844.8122,N,00914.2777,W,2,9,0.99,143.4,M,50.7,M,0000,0000*45
$GPGLL,3844.8122,N,00914.2777,W,202057.800,A,D*4F
$GPGSA,A,3,13,02,10,01,04,17,20,23,07,,,,1.63,0.99,1.30*02
$GPGSV,3,1,11,13,76,171,47,23,65,058,48,04,54,310,44,33,44,189,39*72
$GPGSV,3,2,11,20,39,071,42,17,39,225,47,10,37,282,42,01,17,132,30*75
$GPGSV,3,3,11,02,14,312,39,07,12,161,28,32,09,075,14*43
$GPRMC,202057.800,A,3844.8122,N,00914.2777,W,32.61,287.06,240913,,,D*48
$GPVTG,287.06,T,,M,32.61,N,60.43,K,D*34
$GPZDA,202057.800,24,09,2013,,*53
$GPGGA,202058.000,3844.8127,N,00914.2798,W,2,9,0.99,143.2,M,50.7,M,0000,0000*40
$GPGLL,3844.8127,N,00914.2798,W,202058.000,A,D*4C
$GPGSA,A,3,13,02,10,01,04,17,20,23,07,,,,1.63,0.99,1.30*02
$GPGSV,3,1,11,13,76,171,47,23,65,058,48,04,54,310,44,33,44,189,39*72
$GPGSV,3,2,11,20,39,071,42,17,39,225,47,10,37,282,42,01,17,132,30*75
$GPGSV,3,3,11,02,14,312,39,07,12,161,30,32,09,075,14*4A
$GPRMC,202058.000,A,3844.8127,N,00914.2798,W,32.09,286.97,240913,,,D*4C
$GPVTG,286.97,T,,M,32.09,N,59.46,K,D*3C
$GPZDA,202058.000,24,09,2013,,*54
$GPGGA,202058.200,3844.8132,N,00914.2820,W,2,9,0.99,143.0,M,50.7,M,0000,0000*48
$GPGLL,3844.8132,N,00914.2820,W,202058.200,A,D*46
$GPGSA,A,3,13,02,10,01,04,17,20,23,07,,,,1.63,0.99,1.30*02
$GPGSV,3,1,11,13,76,171,47,23,65,058,48,04,54,310,44,33,44,189,39*72
$GPGSV,3,2,11,20,39,071,42,17,39,225,47,10,37,282,42,01,17,132,30*75
$GPGSV,3,3,11,02,14,312,39,07,12,161,31,32,09,075,14*4B
$GPRMC,202058.200,A,3844.8132,N,00914.2820,W,31.63,287.21,240913,,,D*45
$GPVTG,287.21,T,,M,31.63,N,58.61,K,D*3B
$GPZDA,202058.200,24,09,2013,,*56
$GPGGA,202058.400,3844.8137,N,00914.2842,W,2,9,0.99,142.8,M,50.7,M,0000,0000*46
$GPGLL,3844.8137,N,00914.2842,W,202058.400,A,D*41
$GPGSA,A,3,13,02,10,01,04,17,20,23,07,,,,1.63,0.99,1.30*02
$GPGSV,3,1,11,13,76,171,47,23,65,058,48,04,54,310,44,33,44,189,39*72
$GPGSV,3,2,11,20,39,071,42,17,39,225,47,10,37,282,42,01,17,132,29*7D
$GPGSV,3,3,11,02,14,312,39,07,12,161,32,32,09,075,14*48
$GPRMC,202058.400,A,3844.8137,N,00914.2842,W,31.21,287.37,240913,,,D*43
$GPVTG,287.37,T,,M,31.21,N,57.82,K,D*38
$GPZDA,202058.400,24,09,2013,,*50
$GPGGA,202058.600,3844.8141,N,00914.2862,W,2,9,0.99,142.6,M,50.7,M,0000,0000*49
$GPGLL,3844.8141,N,00914.2862,W,202058.600,A,D*40
$GPGSA,A,3,13,02,10,01,04,17,20,23,07,,,,1.63,0.99,1.30*02
$GPGSV,3,1,11,13,76,171,47,23,65,058,48,04,54,310,44,33,44,189,39*72
$GPGSV,3,2,11,20,39,071,42,17,39,225,47,10,37,282,42,01,17,132,28*7C
$GPGSV,3,3,11,02,14,312,39,07,12,161,31,32,09,075,14*4B
$GPRMC,202058.600,A,3844.8141,N,00914.2862,W,30.61,287.44,240913,,,D*43
$GPVTG,287.44,T,,M,30.61,N,56.71,K,D*34
$GPZDA,202058.600,24,09,2013,,*52
$GPGGA,202058.800,3844.8146,N,00914.2882,W,2,9,0.99,142.4,M,50.7,M,0000,0000*4C
$GPGLL,3844.8146,N,00914.2882,W,202058.800,A,D*47
$GPGSA,A,3,13,02,10,01,04,17,20,23,07,,,,1.63,0.99,1.30*02
$GPGSV,3,1,11,13,76,171,47,23,65,058,48,04,54,310,45,33,44,189,39*73
$GPGSV,3,2,11,20,39,071,42,17,39,225,47,10,37,282,42,01,17,132,28*7C
$GPGSV,3,3,11,02,14,312,39,07,12,161,30,32,09,075,14*4A
$GPRMC,202058.800,A,3844.8146,N,00914.2882,W,29.91,287.53,240913,,,D*45
$GPVTG,287.53,T,,M,29.91,N,55.42,K,D*36
$GPZDA,202058.800,24,09,2013,,*5C
$GPGGA,202059.000,3844.8151,N,00914.2902,W,2,9,0.99,142.2,M,50.7,M,0000,0000*4C
$GPGLL,3844.8151,N,00914.2902,W,202059.000,A,D*41
$GPGSA,A,3,13,02,10,01,04,17,20,23,07,,,,1.63,0.99,1.30*02
$GPGSV,3,1,11,13,76,171,47,23,65,058,48,04,54,310,45,33,44,189,38*72
$GPGSV,3,2,11,20,39,071,42,17,39,225,47,10,37,282,42,01,17,132,28*7C
$GPGSV,3,3,11,02,14,312,39,07,12,161,29,32,09,075,14*42
$GPRMC,202059.000,A,3844.8151,N,00914.2902,W,29.36,287.72,240913,,,D*4D
$GPVTG,287.72,T,,M,29.36,N,54.40,K,D*3B
$GPZDA,202059.000,24,09,2013,,*55
$GPGGA,202059.200,3844.8156,N,00914.2921,W,2,9,0.99,142.0,M,50.7,M,0000,0000*4A
$GPGLL,3844.8156,N,00914.2921,W,202059.200,A,D*45
$GPGSA,A,3,13,02,10,01,04,17,20,23,07,,,,1.63,0.99,1.30*02
$GPGSV,3,1,11,13,76,171,47,23,65,058,48,04,54,310,45,33,44,189,38*72
$GPGSV,3,2,11,20,39,071,42,17,39,225,47,10,37,282,42,01,17,132,28*7C
$GPGSV,3,3,11,02,14,312,39,07,12,161,29,32,09,075,*47
$GPRMC,202059.200,A,3844.8156,N,00914.2921,W,28.87,287.91,240913,,,D*4F
$GPVTG,287.91,T,,M,28.87,N,53.50,K,D*3B
$GPZDA,202059.200,24,09,2013,,*57
$GPGGA,202059.400,3844.8161,N,00914.2941,W,2,9,0.99,141.8,M,50.7,M,0000,0000*45
$GPGLL,3844.8161,N,00914.2941,W,202059.400,A,D*41
$GPGSA,A,3,13,02,10,01,04,17,20,23,07,,,,1.63,0.99,1.30*02
$GPGSV,3,1,11,13,76,171,47,23,65,058,48,04,54,310,45,33,44,189,38*72
$GPGSV,3,2,11,20,39,071,42,17,39,225,47,10,37,282,42,01,17,132,27*73
$GPGSV,3,3,11,02,14,312,39,07,12,161,28,32,09,075,*46
$GPRMC,202059.400,A,3844.8161,N,00914.2941,W,28.82,287.73,240913,,,D*42
$GPVTG,287.73,T,,M,28.82,N,53.41,K,D*32
$GPZDA,202059.400,24,09,2013,,*51
$GPGGA,202059.600,3844.8165,N,00914.2961,W,2,9,0.99,141.6,M,50.7,M,0000,0000*4F
$GPGLL,3844.8165,N,00914.2961,W,202059.600,A,D*45
$GPGSA,A,3,13,02,10,01,04,17,20,23,07,,,,1.63,0.99,1.30*02
$GPGSV,3,1,11,13,76,171,47,23,65,058,48,04,54,310,45,33,44,189,38*72
$GPGSV,3,2,11,20,39,071,42,17,39,225,47,10,37,282,42,01,17,132,26*72
$GPGSV,3,3,11,02,14,312,39,07,12,161,28,32,09,075,*46
$GPRMC,202059.600,A,3844.8165,N,00914.2961,W,28.86,287.87,240913,,,D*49
$GPVTG,287.87,T,,M,28.86,N,53.47,K,D*3B
$GPZDA,202059.600,24,09,2013,,*53
$GPGGA,202059.800,3844.8170,N,00914.2981,W,2,9,0.99,141.4,M,50.7,M,0000,0000*49
$GPGLL,3844.8170,N,00914.2981,W,202059.800,A,D*41
$GPGSA,A,3,13,02,10,01,04,17,20,23,07,,,,1.63,0.99,1.30*02
$GPGSV,3,1,11,13,76,171,47,23,65,058,48,04,54,310,45,33,44,189,38*72
$GPGSV,3,2,11,20,39,071,42,17,39,225,47,10,37,282,42,01,17,132,26*72
$GPGSV,3,3,11,02,14,312,39,07,12,161,28,32,09,075,*46
$GPRMC,202059.800,A,3844.8170,N,00914.2981,W,28.89,287.63,240913,,,D*48
$GPVTG,287.63,T,,M,28.89,N,53.53,K,D*3B
$GPZDA,202059.800,24,09,2013,,*5D
$GPGGA,202100.000,3844.8175,N,00914.3001,W,2,9,0.99,141.1,M,50.7,M,0000,0000*4C
$GPGLL,3844.8175,N,00914.3001,W,202100.000,A,D*41
$GPGSA,A,3,13,02,10,01,04,17,20,23,07,,,,1.63,0.99,1.30*02
$GPGSV,3,1,11,13,76,171,47,23,65,058,48,04,54,310,45,33,44,189,38*72
$GPGSV,3,2,11,20,39,071,42,17,39,225,47,10,37,282,42,01,17,132,26*72
$GPGSV,3,3,11,02,14,312,39,07,12,161,28,32,09,075,*46
$GPRMC,202100.000,A,3844.8175,N,00914.3001,W,28.95,288.00,240913,,,D*4F
$GPVTG,288.00,T,,M,28.95,N,53.64,K,D*38
$GPZDA,202100.000,24,09,2013,,*58
$GPGGA,202100.200,3844.8180,N,00914.3020,W,2,9,0.99,140.9,M,50.7,M,0000,0000*4E
$GPGLL,3844.8180,N,00914.3020,W,202100.200,A,D*4A
$GPGSA,A,3,13,02,10,01,04,17,20,23,07,,,,1.63,0.99,1.30*02
$GPGSV,3,1,11,13,76,171,47,23,65,058,48,04,54,310,45,33,44,189,38*72
$GPGSV,3,2,11,20,39,071,42,17,39,225,47,10,37,282,42,01,17,132,26*72
$GPGSV,3,3,11,02,14,312,39,07,12,161,28,32,09,075,*46
$GPRMC,202100.200,A,3844.8180,N,00914.3020,W,29.00,287.91,240913,,,D*4E
$GPVTG,287.91,T,,M,29.00,N,53.73,K,D*34
$GPZDA,202100.200,24,09,2013,,*5A
$GPGGA,202100.400,3844.8184,N,00914.3040,W,2,9,0.99,140.7,M,50.7,M,0000,0000*44
$GPGLL,3844.8184,N,00914.3040,W,202100.400,A,D*4E
$GPGSA,A,3,13,02,10,01,04,17,20,23,07,,,,1.63,0.99,1.30*02
$GPGSV,3,1,11,13,76,171,47,23,65,058,48,04,54,310,45,33,44,189,38*72
$GPGSV,3,2,11,20,39,071,42,17,39,225,47,10,37,282,42,01,17,132,25*71
$GPGSV,3,3,11,02,14,312,39,07,12,161,28,32,09,075,*46
$GPRMC,202100.400,A,3844.8184,N,00914.3040,W,29.00,287.80,240913,,,D*4A
$GPVTG,287.80,T,,M,29.00,N,53.74,K,D*33
$GPZDA,202100.400,24,09,2013,,*5C
$GPGGA,202100.600,3844.8189,N,00914.3060,W,2,9,0.99,140.6,M,50.7,M,0000,0000*48
$GPGLL,3844.8189,N,00914.3060,W,202100.600,A,D*43
$GPGSA,A,3,13,02,10,01,04,17,20,23,07,,,,1.63,0.99,1.30*02
$GPGSV,3,1,11,13,76,171,47,23,65,058,48,04,54,310,45,33,44,189,38*72
$GPGSV,3,2,11,20,39,071,42,17,39,225,47,10,37,282,42,01,17,132,24*70
$GPGSV,3,3,11,02,14,312,39,07,12,161,27,32,09,075,*49
$GPRMC,202100.600,A,3844.8189,N,00914.3060,W,29.04,287.86,240913,,,D*45
$GPVTG,287.86,T,,M,29.04,N,53.81,K,D*3B
$GPZDA,202100.600,24,09,2013,,*5E
$GPGGA,202100.800,3844.8193,N,00914.3080,W,2,9,0.99,140.3,M,50.7,M,0000,0000*46
$GPGLL,3844.8193,N,00914.3080,W,202100.800,A,D*48
$GPGSA,A,3,13,02,10,01,04,17,20,23,07,,,,1.63,0.99,1.30*02
$GPGSV,3,1,11,13,76,171,47,23,65,058,48,04,54,310,45,33,44,189,39*73
$GPGSV,3,2,11,20,39,071,42,17,39,225,47,10,37,282,42,01,17,132,24*70
$GPGSV,3,3,11,02,14,312,39,07,12,161,26,32,09,075,*48
$GPRMC,202100.800,A,3844.8193,N,00914.3080,W,29.20,288.02,240913,,,D*4B
$GPVTG,288.02,T,,M,29.20,N,54.11,K,D*30
$GPZDA,202100.800,24,09,2013,,*50
$GPGGA,202101.000,3844.8198,N,00914.3100,W,2,8,1.08,140.4,M,50.7,M,0000,0000*42
$GPGLL,3844.8198,N,00914.3100,W,202101.000,A,D*43
$GPGSA,A,3,13,02,10,01,04,17,20,23,,,,,1.79,1.08,1.43*03
$GPGSV,3,1,11,13,76,171,47,23,65,058,48,04,54,310,45,33,44,189,39*73
$GPGSV,3,2,11,20,39,071,42,17,39,225,47,10,37,282,42,01,17,132,24*70
$GPGSV,3,3,11,02,14,312,39,07,12,161,18,32,09,075,*45
$GPRMC,202101.000,A,3844.8198,N,00914.3100,W,29.40,287.93,240913,,,D*41
$GPVTG,287.93,T,,M,29.40,N,54.48,K,D*3D
$GPZDA,202101.000,24,09,2013,,*59
$GPGGA,202101.200,3844.8203,N,00914.3119,W,2,8,1.08,140.1,M,50.7,M,0000,0000*4C
$GPGLL,3844.8203,N,00914.3119,W,202101.200,A,D*48
$GPGSA,A,3,13,02,10,01,04,17,20,23,,,,,1.79,1.08,1.43*03
$GPGSV,3,1,11,13,76,171,47,23,65,058,48,04,54,310,45,33,44,189,39*73
$GPGSV,3,2,11,20,39,071,42,17,39,225,47,10,37,282,42,01,17,132,24*70
$GPGSV,3,3,11,02,14,312,39,07,12,161,18,32,09,075,*45
$GPRMC,202101.200,A,3844.8203,N,00914.3119,W,29.72,288.28,240913,,,D*44
$GPVTG,288.28,T,,M,29.72,N,55.07,K,D*39
$GPZDA,202101.200,24,09,2013,,*5B
$GPGGA,202101.400,3844.8208,N,00914.3139,W,2,8,1.08,140.0,M,50.7,M,0000,0000*42
$GPGLL,3844.8208,N,00914.3139,W,202101.400,A,D*47
$GPGSA,A,3,13,02,10,01,04,17,20,23,,,,,1.79,1.08,1.43*03
$GPGSV,3,1,11,13,76,171,47,23,65,058,48,04,54,310,45,33,44,189,39*73
$GPGSV,3,2,11,20,39,071,42,17,39,225,47,10,37,282,42,01,17,132,24*70
$GPGSV,3,3,11,02,14,312,38,07,12,161,18,32,09,075,*44
$GPRMC,202101.400,A,3844.8208,N,00914.3139,W,29.51,287.66,240913,,,D*4F
$GPVTG,287.66,T,,M,29.51,N,54.68,K,D*35
$GPZDA,202101.400,24,09,2013,,*5D
$GPGGA,202101.600,3844.8213,N,00914.3159,W,2,9,0.99,139.9,M,50.7,M,0000,0000*43
$GPGLL,3844.8213,N,00914.3159,W,202101.600,A,D*49
$GPGSA,A,3,13,02,10,01,04,17,20,23,07,,,,1.63,0.99,1.30*02
$GPGSV,3,1,11,13,76,171,47,23,65,058,48,04,54,310,45,33,44,189,39*73
$GPGSV,3,2,11,20,39,071,42,17,39,225,47,10,37,282,42,01,17,132,24*70
$GPGSV,3,3,11,02,14,312,38,07,12,161,20,32,09,075,*4F
$GPRMC,202101.600,A,3844.8213,N,00914.3159,W,29.80,287.83,240913,,,D*46
$GPVTG,287.83,T,,M,29.80,N,55.22,K,D*3D
$GPZDA,202101.600,24,09,2013,,*5F
$GPGGA,202101.800,3844.8219,N,00914.3178,W,2,9,0.99,139.6,M,50.7,M,0000,0000*4B
$GPGLL,3844.8219,N,00914.3178,W,202101.800,A,D*4E
$GPGSA,A,3,13,02,10,01,04,17,20,23,07,,,,1.63,0.99,1.30*02
$GPGSV,3,1,11,13,76,171,47,23,65,058,48,04,54,310,44,33,44,189,39*72
$GPGSV,3,2,11,20,39,071,42,17,39,225,47,10,37,282,42,01,17,132,24*70
$GPGSV,3,3,11,02,14,312,38,07,12,161,21,32,09,075,*4E
$GPRMC,202101.800,A,3844.8219,N,00914.3178,W,29.82,287.67,240913,,,D*49
$GPVTG,287.67,T,,M,29.82,N,55.25,K,D*32
$GPZDA,202101.800,24,09,2013,,*51
$GPGGA,202102.000,3844.8224,N,00914.3198,W,2,9,0.99,139.6,M,50.7,M,0000,0000*40
$GPGLL,3844.8224,N,00914.3198,W,202102.000,A,D*45
$GPGSA,A,3,13,02,10,01,04,17,20,23,07,,,,1.63,0.99,1.30*02
$GPGSV,3,1,11,13,76,171,47,23,65,058,48,04,54,310,44,33,44,189,39*72
$GPGSV,3,2,11,20,39,071,42,17,39,225,47,10,37,282,42,01,17,132,24*70
$GPGSV,3,3,11,02,14,312,38,07,12,161,22,32,09,075,*4D
$GPRMC,202102.000,A,3844.8224,N,00914.3198,W,30.19,287.89,240913,,,D*48
$GPVTG,287.89,T,,M,30.19,N,55.93,K,D*35
$GPZDA,202102.000,24,09,2013,,*5A
$GPGGA,202102.200,3844.8229,N,00914.3218,W,2,9,0.99,139.5,M,50.7,M,0000,0000*47
$GPGLL,3844.8229,N,00914.3218,W,202102.200,A,D*41
$GPGSA,A,3,13,02,10,01,04,17,20,23,07,,,,1.63,0.99,1.30*02
$GPGSV,3,1,11,13,76,171,47,23,65,058,47,04,54,310,44,33,44,189,39*7D
$GPGSV,3,2,11,20,39,071,42,17,39,225,47,10,37,282,42,01,17,132,24*70
$GPGSV,3,3,11,02,14,312,38,07,12,161,22,32,09,075,*4D
$GPRMC,202102.200,A,3844.8229,N,00914.3218,W,30.24,287.79,240913,,,D*4D
$GPVTG,287.79,T,,M,30.24,N,56.04,K,D*39
$GPZDA,202102.200,24,09,2013,,*58
$GPGGA,202102.400,3844.8234,N,00914.3239,W,2,9,0.99,139.3,M,50.7,M,0000,0000*48
$GPGLL,3844.8234,N,00914.3239,W,202102.400,A,D*48
$GPGSA,A,3,13,02,10,01,04,17,20,23,07,,,,1.63,0.99,1.30*02
$GPGSV,3,1,11,13,76,171,47,23,65,058,47,04,54,310,44,33,44,189,39*7D
$GPGSV,3,2,11,20,39,071,42,17,39,225,47,10,37,282,42,01,17,132,24*70
$GPGSV,3,3,11,02,14,312,39,07,12,161,23,32,09,075,*4D
$GPRMC,202102.400,A,3844.8234,N,00914.3239,W,30.53,287.44,240913,,,D*4A
$GPVTG,287.44,T,,M,30.53,N,56.58,K,D*3E
$GPZDA,202102.400,24,09,2013,,*5E
$GPGGA,202102.600,3844.8239,N,00914.3259,W,2,9,0.99,139.2,M,50.7,M,0000,0000*40
$GPGLL,3844.8239,N,00914.3259,W,202102.600,A,D*41
$GPGSA,A,3,13,02,10,01,04,17,20,23,07,,,,1.63,0.99,1.30*02
$GPGSV,3,1,11,13,76,171,47,23,65,058,47,04,54,310,44,33,44,189,39*7D
$GPGSV,3,2,11,20,39,071,41,17,39,225,47,10,37,282,42,01,17,132,24*73
$GPGSV,3,3,11,02,14,312,39,07,12,161,23,32,09,075,*4D
$GPRMC,202102.600,A,3844.8239,N,00914.3259,W,30.50,287.94,240913,,,D*4D
$GPVTG,287.94,T,,M,30.50,N,56.51,K,D*39
$GPZDA,202102.600,24,09,2013,,*5C
$GPGGA,202102.800,3844.8244,N,00914.3280,W,2,9,0.99,139.0,M,50.7,M,0000,0000*42
$GPGLL,3844.8244,N,00914.3280,W,202102.800,A,D*41
$GPGSA,A,3,13,02,10,01,04,17,20,23,07,,,,1.63,0.99,1.30*02
$GPGSV,3,1,11,13,76,171,47,23,65,058,47,04,54,310,44,33,44,189,39*7D
$GPGSV,3,2,11,20,39,071,41,17,39,225,47,10,37,282,42,01,17,132,24*73
$GPGSV,3,3,11,02,14,312,39,07,12,161,23,32,09,075,*4D
$GPRMC,202102.800,A,3844.8244,N,00914.3280,W,30.58,287.67,240913,,,D*49
$GPVTG,287.67,T,,M,30.58,N,56.66,K,D*39
$GPZDA,202102.800,24,09,2013,,*52
$GPGGA,202103.000,3844.8248,N,00914.3301,W,2,9,0.99,139.0,M,50.7,M,0000,0000*4F
$GPGLL,3844.8248,N,00914.3301,W,202103.000,A,D*4C
$GPGSA,A,3,13,02,10,01,04,17,20,23,07,,,,1.63,0.99,1.30*02
$GPGSV,3,1,11,13,76,171,47,23,65,058,47,04,54,310,44,33,44,189,39*7D
